     2.00           OBSERVATION DATA    G(GPS)              RINEX VERSION / TYPE
goGPS-java                              02-Jun-22 20:29:25  PGM / RUN BY / DATE
                                                            MARKER NAME
                                                            MARKER NUMBER
                    Lotek Wireless Inc.                     OBSERVER / AGENCY
7                                                           REC # / TYPE / VERS
                                                            ANT # / TYPE
 -1701871.0000 -5580152.0000  2569378.0000                  APPROX POSITION XYZ
        0.0000        0.0000        0.0000                  ANTENNA: DELTA H / E / N
     2     0                                                WAVELENGTH FACT L1/2
     1    C1                                                # / TYPES OF OBSERV
  2022     5     6    13     0    4.0000000     UTC         TIME OF FIRST OBS
                                                            END OF HEADER
 22  5  6 13  0  4.0000000  0 06G04G07G08G09G14G30 6.48,0.0,0.00
  23760693.250
  18482427.750
  23520543.750
  22725645.250
  19730595.250
  19930709.750
 22  5  7 16  0 10.0000000  0 09G01G06G07G13G14G17G19G28G30 -4.000,0.0,0.00
  21341814.250
  23523108.250
  20136768.750
  21351187.750
  20422403.750
  19376336.750
  20562663.750
  21024738.750
  19484933.250
 22  5  8  4  0  4.0000000  0 06G08G10G23G24G27G32 -2.88,0.0,0.00
  18210717.250
  21419519.750
  21558284.250
  22520604.750
  22057864.250
  20608545.250
 22  5  8 16  0  4.0000000  0 08G01G07G13G14G17G19G28G30 -5.76,0.0,0.00
  23092005.750
  21943843.750
  23039552.250
  22153683.750
  21091383.250
  22195340.750
  22738030.750
  21226074.750
 22  5  9  4  0  9.0000000  0 06G10G22G23G24G27G32 -8.640,0.0,0.00
  20356183.250
  20355169.250
  20546854.750
  21541536.250
  21018251.750
  19512231.750
 22  5  9 16  0  4.0000000  0 09G01G06G07G14G17G19G21G28G30 -1.80,0.0,0.00
  18986782.250
  20809255.250
  23891676.250
  18023907.750
  22944841.750
  23959857.250
  21650362.750
  18589217.250
  23105622.250
 22  5 10  4  0  4.0000000  0 06G08G10G22G23G27G32 -3.60,0.0,0.00
  20274898.250
  23593753.250
  23521643.250
  23837405.250
  18290486.750
  22724754.250
 22  5 10 16  0  7.0000000  0 08G06G07G13G14G17G19G28G30 -5.40,0.0,0.00
  20006414.250
  23336483.250
  18198615.250
  23378344.750
  22297319.750
  23224348.750
  23924317.250
  22483220.250
 22  5 11  4  0  6.0000000  0 08G08G10G18G22G23G24G27G32 -7.19,0.0,0.00
  21341940.250
  18711591.250
  18945725.750
  18571660.750
  19007684.250
  20085412.750
  19440193.250
  23817550.250
 22  5 11 16  0  4.0000000  0 07G01G06G07G13G17G19G30 -8.99,0.0,0.00
  20674578.750
  22108151.250
  19690111.750
  20432901.750
  18560269.750
  19400529.250
  18771053.250
 22  5 12  4  0  4.0000000  0 06G10G18G22G27G31G32 -10.79,0.0,0.00
  18088386.750
  18447380.750
  23882119.250
  18857869.750
  20877767.750
  23178782.250
 22  5 12 16  0  4.0000000  0 07G01G07G14G17G21G28G30 -12.59,0.0,0.00
  18539073.750
  23599898.750
  23459118.250
  22381365.750
  21450837.750
  23964865.250
  22615810.750
 22  5 13  4  0  7.0000000  0 09G08G10G18G21G22G23G24G27G32 -14.39,0.0,0.00
  18044804.250
  21487687.750
  21977792.750
  19617820.250
  21226743.750
  21889353.750
  23071030.250
  22304929.750
  20571401.750
 22  5 13 16  0  6.0000000  0 09G01G06G07G13G14G15G17G19G28 -16.19,0.0,0.00
  18261051.250
  19272949.750
  23370765.250
  23886580.750
  23128831.750
  20378794.250
  22060311.750
  22721775.250
  23612279.250
 22  5 14  4  0  5.0000000  0 06G08G10G18G22G27G32 -17.99,0.0,0.00
  18364415.250
  21837730.750
  22460462.750
  21523577.750
  22707054.250
  20915544.750
 22  5 14 16  0  5.0000000  0 06G01G07G13G14G21G30 -19.78,0.0,0.00
  20266530.750
  19425429.750
  19834455.250
  19083062.250
  23323823.250
  18311855.250
 22  5 15  4  0  4.0000000  0 06G08G10G22G23G27G32 -21.58,0.0,0.00
  20393622.750
  23891676.250
  23529145.250
  18403035.750
  18823414.250
  22968642.250
 22  5 15 16  0  5.0000000  0 07G06G07G13G17G19G28G30 -23.38,0.0,0.00
  21815783.750
  20453165.750
  20753194.750
  18967857.250
  19450537.250
  20442717.250
  19275993.750
 22  5 16  4  0  5.0000000  0 06G10G18G22G27G31G32 -25.18,0.0,0.00
  23576989.750
  18482985.750
  23169228.250
  18571284.750
  19761612.750
  22657099.750
 22  5 16 16  0  4.0000000  0 06G06G07G13G19G28G30 -26.98,0.0,0.00
  18656820.750
  23564380.750
  23755721.750
  22383571.250
  23417642.750
  22324240.750
 22  5 17  4  0  8.0000000  0 07G10G18G22G23G27G31G32 -28.78,0.0,0.00
  21829070.250
  19879888.750
  21380371.250
  22445570.750
  22887202.250
  23852959.750
  20917061.250
 22  5 17 16  0  4.0000000  0 07G06G13G15G17G19G28G30 -30.58,0.0,0.00
  18825599.250
  18103140.250
  20462188.750
  22350710.750
  22655208.250
  23726507.250
  22710678.250
 22  5 18  4  0  6.0000000  0 07G08G10G18G22G27G31G32 -32.37,0.0,0.00
  22248338.750
  19796911.750
  20993129.250
  19312469.250
  20925912.250
  21666872.250
  18896962.250
 22  5 18 16  0  4.0000000  0 07G01G06G07G14G17G28G30 -34.17,0.0,0.00
  19884247.250
  19733816.250
  19207962.250
  18412053.250
  23453581.250
  18776160.250
  23841097.750
 22  5 19  4  0  4.0000000  0 07G08G10G18G22G27G31G32 -35.97,0.0,0.00
  22993905.750
  20547591.250
  21894563.250
  20031743.750
  21751420.750
  22263368.250
  19663853.250
 22  5 19 16  0  4.0000000  0 08G06G07G13G14G17G19G28G30 -37.77,0.0,0.00
  20891609.750
  20651970.750
  20530324.250
  19732500.750
  18813143.750
  18941451.250
  20069274.750
  19229474.250
 22  5 20  4  0  4.0000000  0 08G08G10G21G22G23G27G31G32 -39.57,0.0,0.00
  19225491.750
  22775240.250
  20055230.250
  22232098.750
  23556405.250
  18062487.750
  18339835.250
  21911825.750
 22  5 20 16  0  4.0000000  0 07G01G07G14G17G19G28G30 -41.37,0.0,0.00
  20993173.750
  20388042.250
  19341706.250
  18460749.750
  18502233.750
  19649892.750
  18907180.250
 22  5 21  4  0  5.0000000  0 07G08G10G21G22G27G31G32 -43.17,0.0,0.00
  23431399.250
  20980847.750
  18137283.750
  20414355.750
  22346825.750
  22385581.750
  20141398.750
 22  5 21 16  0  4.0000000  0 06G13G14G17G19G28G30 -44.96,0.0,0.00
  22673545.750
  21820433.250
  20980871.750
  20936638.250
  22098715.250
  21458856.250
 22  5 22  4  0  7.0000000  0 08G08G10G18G21G22G23G27G31 -46.76,0.0,0.00
  19266459.750
  22802621.750
  18618726.750
  19835023.750
  22216606.250
  23697322.250
  18259089.750
  18055608.250
 22  5 22 16  0  4.0000000  0 08G06G13G14G15G17G19G28G30 -48.56,0.0,0.00
  20413449.250
  20623334.250
  19735884.750
  22803124.750
  18940404.250
  18811611.250
  19982920.750
  19451468.250
 22  5 23  4  0  9.0000000  0 06G08G18G22G23G27G31 -50.360,0.0,0.00
  21521746.250
  21018316.250
  18446772.250
  20001319.750
  20589970.250
  20142585.250
 22  5 23 16  0  4.0000000  0 07G06G13G14G17G19G28G30 -1.78,0.0,0.00
  20264100.750
  20711064.250
  19776765.250
  19037336.750
  18808433.750
  19984302.250
  19591258.750