     2.00           OBSERVATION DATA    G(GPS)              RINEX VERSION / TYPE
goGPS-java                              14-Jun-22 19:31:28  PGM / RUN BY / DATE
                                                            MARKER NAME
                                                            MARKER NUMBER
                    Lotek Wireless Inc.                     OBSERVER / AGENCY
7                                                           REC # / TYPE / VERS
                                                            ANT # / TYPE
 -1701871.0000 -5580152.0000  2569378.0000                  APPROX POSITION XYZ
        0.0000        0.0000        0.0000                  ANTENNA: DELTA H / E / N
     2     0                                                WAVELENGTH FACT L1/2
     1    C1                                                # / TYPES OF OBSERV
  2022     4    18    22    26   33.0000000     UTC         TIME OF FIRST OBS
                                                            END OF HEADER
 22  4 19  1  0  8.0000000  0 08G02G05G13G15G18G23G25G29 7.96,0.0,0.00
  20221359.750
  23097009.250
  18540771.250
  23840058.250
  18546839.250
  19021155.250
  23540830.250
  22902391.250
 22  4 21 12  0 11.0000000  0 07G03G04G07G09G16G26G27 -76.60000,0.0,0.00
  21223446.750
  20903633.750
  23807487.750
  22519889.250
  21026587.250
  23479654.750
  22974032.250
 22  4 21 12 20  4.0000000  0 06G03G04G07G08G09G16 -0.67,0.0,0.00
  18362983.750
  23220060.750
  20061831.250
  19586994.250
  18483649.750
  18145299.750
 22  4 21 12 40  8.0000000  0 05G03G04G07G08G09 -0.72,0.0,0.00
  19014337.250
  23088510.750
  19784348.750
  18989895.750
  23956650.250
 22  4 21 13  0  4.0000000  0 06G03G04G08G09G16G27 -0.76,0.0,0.00
  18383271.750
  21733371.750
  23124023.250
  22168421.750
  18202286.250
  23356788.250
 22  4 21 13 20  4.0000000  0 06G03G04G07G08G09G30 -0.81,0.0,0.00
  23200590.750
  19935479.250
  21973175.250
  20795570.250
  19903890.250
  23632376.750
 22  4 21 13 40  4.0000000  0 06G04G07G08G09G27G30 -0.86,0.0,0.00
  19230754.750
  20720013.750
  19562256.750
  18718692.250
  20727604.250
  22252186.250
 22  4 21 14  0  8.0000000  0 05G04G08G09G14G27 -0.91,0.0,0.00
  19136462.250
  18964533.250
  18150453.750
  21197311.750
  20616575.750
 22  4 21 14 20  5.0000000  0 06G04G07G08G09G14G28 -0.96,0.0,0.00
  23678484.250
  23623667.750
  23054778.750
  22252305.250
  18697842.750
  20104935.750
 22  4 21 14 40  4.0000000  0 08G04G07G08G09G14G21G28G30 -1.01,0.0,0.00
  18630028.750
  23617572.750
  23615205.750
  22810302.250
  18569671.750
  20219959.250
  19861383.750
  18751069.250
 22  4 21 15  0  7.0000000  0 09G01G04G07G08G09G14G21G28G30 -1.05,0.0,0.00
  20382201.750
  19121978.250
  23078543.750
  23795135.750
  22978750.750
  23973759.250
  19705953.250
  19153428.750
  18050451.750
 22  4 21 15 20  4.0000000  0 07G07G08G09G14G17G28G30 -1.10,0.0,0.00
  21100733.750
  22638989.750
  21807169.750
  21988575.750
  23057821.250
  23053546.750
  21884031.250
 22  4 21 15 40  4.0000000  0 07G07G08G13G14G17G28G30 -1.15,0.0,0.00
  23390394.250
  19809599.750
  21224302.250
  18288637.250
  18803703.750
  19251347.750
  23960378.750
 22  4 21 16  0 11.0000000  0 06G01G07G08G09G14G30 -1.200,0.0,0.00
  20040983.750
  26123439.250
  21026581.750
  20164394.250
  18613164.750
  18059485.250
 22  4 21 16 20  5.0000000  0 07G07G13G14G17G19G28G30 -1.25,0.0,0.00
  20461097.750
  23062896.250
  21266915.250
  20823272.750
  22796687.250
  22052382.250
  20513656.250
 22  4 21 16 40  5.0000000  0 07G07G13G14G17G19G28G30 -1.30,0.0,0.00
  21013057.750
  22996527.250
  21658667.750
  20881007.750
  22524717.750
  22363861.250
  20768711.750
 22  4 21 17  0  5.0000000  0 08G01G07G13G14G17G19G28G30 -1.35,0.0,0.00
  21401358.750
  20117844.750
  21494921.250
  20493968.750
  19508068.750
  20768784.250
  21117309.250
  19562769.750
 22  4 21 17 20  5.0000000  0 07G01G13G14G17G19G28G30 -1.39,0.0,0.00
  21321121.750
  21110344.750
  20304173.250
  19240414.750
  20085195.750
  20836907.250
  19450125.750
 22  4 21 17 40  5.0000000  0 08G01G06G07G13G14G17G28G30 -1.44,0.0,0.00
  18762335.750
  19167984.250
  17989574.750
  18233138.750
  23469831.250
  22448973.250
  23895377.250
  22822397.250
 22  4 21 18  0  4.0000000  0 07G06G07G13G15G19G28G30 -1.49,0.0,0.00
  19973842.750
  20205427.750
  19938157.750
  22116188.250
  18217816.250
  19383374.250
  18774907.250
 22  4 21 18 20  8.0000000  0 09G01G06G13G14G15G17G19G28G30 -1.54,0.0,0.00
  21285378.250
  19147613.750
  20090751.750
  19040639.250
  22085456.250
  18370325.750
  17999652.750
  19171248.750
  19171206.750
 22  4 21 18 40  5.0000000  0 07G13G14G15G17G19G24G28 -1.59,0.0,0.00
  22622429.250
  21299913.750
  18437380.750
  20867831.250
  20169521.250
  23811719.750
  21231788.750
 22  4 21 19  0  4.0000000  0 07G06G14G17G19G24G28G30 -1.64,0.0,0.00
  19032313.750
  20265431.750
  20064276.250
  19095237.250
  21935950.750
  19959770.250
  21488163.250
 22  4 21 19 20  6.0000000  0 08G02G06G11G14G17G19G28G30 -1.68,0.0,0.00
  20659171.250
  18548968.750
  20909321.750
  20315695.250
  20303026.750
  19122930.250
  19734720.750
  22110092.750
 22  4 21 19 40  4.0000000  0 08G02G06G11G13G14G17G19G28 -1.73,0.0,0.00
  23058230.250
  21424174.250
  23195538.250
  19733789.250
  23621744.250
  23724431.250
  22391928.750
  22734808.750
 22  4 21 20  0  4.0000000  0 07G06G12G14G17G19G24G28 -1.78,0.0,0.00
  22742955.750
  20408763.250
  19280539.250
  19404760.250
  23967904.250
  18688686.250
  18065305.750
 22  4 21 20 20  4.0000000  0 07G06G12G14G17G19G24G28 -1.83,0.0,0.00
  23339189.750
  20119228.750
  20130598.750
  20170688.750
  18682755.250
  18915029.250
  18578716.250
 22  4 21 20 40  4.0000000  0 08G02G06G11G12G14G20G24G28 -1.88,0.0,0.00
  19361306.750
  19361488.750
  19045033.250
  21109056.750
  22339586.250
  21333829.250
  20576008.250
  20458730.750
 22  4 21 21  0  4.0000000  0 08G02G05G06G11G12G20G24G28 -1.93,0.0,0.00
  21705546.250
  19249080.750
  22233397.250
  21241040.750
  22861456.750
  23057369.750
  23122268.250
  23175301.250
 22  4 21 21 20  4.0000000  0 07G02G05G11G12G20G24G28 -1.98,0.0,0.00
  22181714.250
  18837416.750
  21591999.250
  22671670.250
  22848484.750
  23801549.750
  18002862.250
 22  4 21 21 40  4.0000000  0 06G02G05G11G12G20G24 -2.02,0.0,0.00
  18376211.750
  20038850.250
  23689814.750
  18177502.750
  18348334.750
  20193639.250
 22  4 21 22  0  4.0000000  0 06G02G06G11G12G20G25 -2.07,0.0,0.00
  23549428.750
  19371062.250
  22813119.250
  22694915.750
  22872027.250
  19170159.750
 22  4 21 22 20  4.0000000  0 07G02G11G12G19G20G25G29 -2.12,0.0,0.00
  21872608.750
  21122531.750
  20448491.750
  18217241.750
  20639333.750
  22471165.750
  18901080.250
 22  4 21 22 40  4.0000000  0 07G02G05G11G12G20G25G29 -2.17,0.0,0.00
  23916463.250
  22626429.250
  23191402.750
  22053937.250
  22258213.750
  23559718.250
  20078375.250
 22  4 21 23  0  4.0000000  0 07G02G05G11G12G20G25G29 -2.22,0.0,0.00
  19643379.250
  23565632.250
  18978165.750
  23500901.250
  23709356.250
  18445762.250
  20899156.750
 22  4 21 23 20  5.0000000  0 06G02G05G11G12G20G25 -2.27,0.0,0.00
  20342678.750
  23655910.250
  19766740.750
  18105902.250
  18301188.250
  18460415.250
 22  4 21 23 40  6.0000000  0 08G02G05G12G13G15G18G20G25 -2.31,0.0,0.00
  18622215.750
  21523443.250
  22457942.750
  19527805.250
  19611830.250
  19141154.250
  19619368.750
  22236803.750
 22  4 22  0  0  4.0000000  0 06G02G12G13G15G20G25 -2.36,0.0,0.00
  23125607.750
  21198319.250
  23173727.750
  23070022.750
  21297578.750
  20443540.250
 22  4 22  0 20  7.0000000  0 08G05G12G13G15G18G23G25G29 -2.41,0.0,0.00
  19772855.750
  21537762.750
  22348111.750
  22017738.250
  22234115.750
  23253776.750
  20312883.750
  20801650.250
 22  4 22  0 40  4.0000000  0 08G02G05G12G15G18G23G25G29 -2.46,0.0,0.00
  21242623.250
  18042685.750
  20121614.250
  19180827.250
  19758082.750
  20370103.250
  18511282.750
  18167869.750
 22  4 22  1  0  4.0000000  0 07G02G05G12G13G23G25G29 -2.51,0.0,0.00
  23632943.250
  20685022.750
  23002711.250
  21571833.250
  21827611.750
  21096706.750
  19871506.750
 22  4 22  1 20  7.0000000  0 09G02G05G10G13G15G18G23G25G29 -2.56,0.0,0.00
  20056701.250
  23434971.750
  20169542.250
  23535418.250
  22311287.750
  23410987.250
  23410165.250
  23802827.250
  21708708.250
 22  4 22  1 40  4.0000000  0 07G05G10G13G15G23G25G29 -2.61,0.0,0.00
  19822986.250
  21262832.750
  19255177.250
  23684951.250
  18698122.750
  20154827.750
  23269997.250
 22  4 22  2  0  9.0000000  0 07G05G10G13G15G18G25G29 -2.65,0.0,0.00
  18022312.750
  18217560.750
  22930931.250
  21022269.250
  22103704.250
  18316654.750
  20776384.250
 22  4 22  2 20  8.0000000  0 06G05G13G15G18G25G29 -2.70,0.0,0.00
  21806478.250
  20375546.250
  18144966.750
  18957613.750
  22050902.750
  18044634.750
 22  4 22  2 40  6.0000000  0 08G10G15G18G23G24G25G26G29 -2.75,0.0,0.00
  18868426.750
  22758374.250
  23132972.750
  23061709.250
  20151260.250
  21048451.750
  20322676.750
  22780800.250
 22  4 22  3  0 10.0000000  0 06G10G15G23G24G29G32 -2.800,0.0,0.00
  21025824.750
  19619051.750
  19506420.250
  22144273.750
  19743739.750
  23069187.250
 22  4 22  3 20  6.0000000  0 08G10G15G16G18G23G26G27G29 -2.82,0.0,0.00
  20100865.750
  19473503.250
  22798887.250
  18578364.250
  18862553.750
  22686496.750
  22081125.750
  19681981.250
 22  4 22  3 40  4.0000000  0 07G10G15G18G23G24G27G32 -2.83,0.0,0.00
  23934100.750
  18155783.250
  22517501.250
  22971637.750
  18677993.750
  19451651.750
  18865962.250
 22  4 22  4  0  7.0000000  0 08G10G16G18G22G23G27G29G32 -2.85,0.0,0.00
  21819676.250
  19393771.250
  20553609.250
  23655274.750
  21126518.750
  22929234.250
  23261537.750
  22207477.750
 22  4 22  4 20  8.0000000  0 05G10G18G23G24G27 -2.87,0.0,0.00
  19461016.750
  18419908.750
  19029761.750
  20067569.750
  20271640.750
 22  4 22  4 40 11.0000000  0 04G18G22G27G29 -2.89,0.0,0.00
  21037816.250
  22419119.750
  22400181.750
  19091071.250
 22  4 22  5  0  8.0000000  0 08G10G18G22G23G24G27G31G32 -2.90,0.0,0.00
  20273886.250
  19993292.250
  20470845.750
  20358606.250
  21284540.750
  20906382.750
  23818776.750
  19544595.250
 22  4 22  5 20  6.0000000  0 06G10G18G23G24G27G32 -2.92,0.0,0.00
  18450600.750
  18721768.750
  18798362.750
  19896769.750
  19221359.250
  23576294.750
 22  4 22  5 40  7.0000000  0 06G18G22G23G27G31G32 -2.94,0.0,0.00
  23379364.250
  22031811.750
  23070231.750
  23495899.750
  18509218.750
  21555574.250
 22  4 22  6  0  5.0000000  0 06G08G18G22G27G31G32 -2.96,0.0,0.00
  22255361.250
  21508796.750
  19276194.750
  21267289.250
  21118862.750
  19020861.250
 22  4 22  6 20  6.0000000  0 07G08G10G22G23G27G31G32 -2.97,0.0,0.00
  20750331.250
  18236350.750
  23613424.750
  19438803.750
  20114993.250
  18754981.750
  23563745.750
 22  4 22  6 40  7.0000000  0 05G21G22G27G31G32 -2.99,0.0,0.00
  18054530.750
  21656612.750
  18621761.250
  22068765.750
  21790494.250
 22  4 22  7  0  6.0000000  0 07G01G10G21G23G25G31G32 -3.01,0.0,0.00
  23445739.750
  20852468.250
  22048335.250
  22669029.250
  23552481.250
  19990982.750
  20559048.750
 22  4 22  7 20  7.0000000  0 06G10G22G23G25G31G32 -3.03,0.0,0.00
  18858709.250
  18291240.250
  20976794.750
  21146535.250
  23411824.250
  18718315.250
 22  4 22  7 40  4.0000000  0 06G01G10G21G22G31G32 -3.04,0.0,0.00
  23497071.750
  22617700.750
  22741628.750
  22023040.250
  20682962.750
  22563730.750
 22  4 22  8  0  6.0000000  0 09G01G10G21G22G23G25G26G31G32 -3.06,0.0,0.00
  19029186.750
  18971848.750
  18611850.750
  18275813.750
  21623384.750
  20523690.250
  20002290.250
  22627636.250
  18915198.250
 22  4 22  8 20 10.0000000  0 07G01G03G21G22G25G31G32 -3.080,0.0,0.00
  21194831.750
  23558348.250
  21100432.750
  21018323.250
  23159516.250
  19245770.750
  21747522.250
 22  4 22  8 40  4.0000000  0 06G10G21G22G26G31G32 -3.32,0.0,0.00
  22983655.250
  21758652.250
  21796177.250
  21796105.250
  20064380.250
  22612108.750
 22  4 22  9  0  4.0000000  0 07G01G03G04G21G22G31G32 -3.56,0.0,0.00
  20325897.750
  21420590.250
  22629890.250
  20747821.750
  20782523.250
  19239600.750
  21689275.750
 22  4 22  9 20 11.0000000  0 07G01G03G04G22G26G31G32 -3.800,0.0,0.00
  20506490.750
  20742402.750
  22234870.750
  21025994.250
  19613116.250
  19789709.750
  22033495.750
 22  4 22  9 40  4.0000000  0 07G01G03G04G22G26G31G32 -3.71,0.0,0.00
  23901193.750
  23205559.750
  18920099.750
  18348744.750
  22432313.750
  23488013.250
  19468103.750
 22  4 22 10  0  8.0000000  0 08G01G03G16G21G22G26G31G32 -3.62,0.0,0.00
  22245915.250
  20590132.250
  20939443.750
  22946259.250
  22499858.750
  20242256.750
  22067024.750
  23742665.750
 22  4 22 10 20  4.0000000  0 06G03G04G16G22G26G31 -3.53,0.0,0.00
  21504161.750
  23330876.750
  21724106.750
  18080094.750
  21635817.750
  18066576.750
 22  4 22 10 40 10.0000000  0 09G01G03G04G07G09G16G22G26G31 -3.440,0.0,0.00
  23744556.250
  20373145.750
  22035521.750
  19032028.250
  18482632.250
  20470684.750
  23496937.750
  21018367.250
  23867439.750
 22  4 22 11  0  8.0000000  0 08G03G04G07G09G16G22G26G31 -3.50,0.0,0.00
  23564025.250
  18900988.250
  21842442.250
  21179226.750
  23553108.250
  21114358.750
  18716354.250
  21799761.750
 22  4 22 11 20  7.0000000  0 08G03G04G09G16G22G26G27G31 -3.56,0.0,0.00
  21963920.250
  22805840.750
  18885385.250
  21864089.750
  19813206.250
  23575867.250
  19193233.750
  20725681.250
 22  4 22 11 40  4.0000000  0 06G03G04G09G16G26G27 -3.62,0.0,0.00
  20345081.750
  20558324.250
  22386771.750
  20180223.250
  22354649.750
  22763606.750
 22  4 22 12  0 10.0000000  0 07G03G04G07G16G26G27G30 -3.680,0.0,0.00
  22459407.250
  21937988.750
  18835590.250
  22254823.250
  18791447.750
  23961267.750
  21017859.750
 22  4 26  4  0 11.0000000  0 04G22G23G29G32 -17.600,0.0,0.00
  21025074.750
  19243389.250
  21868808.750
  19681957.250
 22  4 26 16  0  4.0000000  0 07G09G13G14G17G19G28G30 -18.87,0.0,0.00
  23255002.750
  22663686.250
  20866955.250
  20360477.250
  22345921.750
  21653253.750
  20098922.750
 22  4 30  4  0  4.0000000  0 06G10G18G22G23G27G32 -27.80,0.0,0.00
  19161860.750
  18272333.250
  19984186.750
  18874371.250
  19846275.750
  18770484.750
 22  4 30 16  0  7.0000000  0 09G01G07G09G13G14G17G19G28G30 -29.07,0.0,0.00
  22112105.750
  20455820.250
  18265672.250
  22593891.250
  21177613.750
  20390639.250
  22123027.250
  21901454.750
  20286676.750
 22  5  4  4  0  7.0000000  0 06G10G18G22G23G29G32 -38.00,0.0,0.00
  23287003.750
  22709282.250
  23694707.250
  23200992.250
  20916621.750
  22634416.750
 22  5  4 16  0  4.0000000  0 06G13G14G17G19G28G30 -39.27,0.0,0.00
  19007655.750
  23890672.250
  22911946.750
  18354499.750
  18556072.250
  22931830.250
 22  5  8  4  0  4.0000000  0 07G08G10G18G23G24G27G32 -48.20,0.0,0.00
  19490769.250
  22689706.250
  22553492.750
  22820144.250
  23778023.750
  23324649.250
  21883950.250
 22  5  8 16  0  4.0000000  0 08G06G07G13G14G17G19G28G30 -49.47,0.0,0.00
  21389041.250
  18191669.750
  19308488.750
  18415869.750
  23350792.750
  18472581.250
  19003445.250
  23481035.750
 22  5 12  4  0 11.0000000  0 03G18G27G31 -58.400,0.0,0.00
  21033937.750
  21458431.250
  23510481.750
 22  5 12 16  0  4.0000000  0 08G01G07G13G14G15G21G28G30 -60.19,0.0,0.00
  19917763.750
  18972555.250
  19626754.750
  18851438.250
  22152010.250
  22814096.250
  19361335.750
  18001226.250
 22  5 16  4  0  8.0000000  0 08G10G18G22G23G24G27G31G32 -72.74,0.0,0.00
  20273030.750
  21149079.250
  19872965.250
  20824402.750
  22184936.750
  21251280.750
  22481900.250
  19351990.250
 22  5 16 16  0  7.0000000  0 09G01G06G07G13G14G17G19G28G30 -74.53,0.0,0.00
  23739762.250
  18119687.750
  22976464.750
  23188805.750
  22437267.750
  21419585.750
  21829290.250
  22856849.750
  21747878.750
 22  5 20  4  0  7.0000000  0 08G10G18G22G23G24G27G31G32 -87.07,0.0,0.00
  22356853.250
  23832085.250
  21818396.750
  23127423.750
  18807224.750
  23625038.250
  23946085.750
  21489410.750
 22  5 20 16  0  7.0000000  0 07G06G07G13G17G19G28G30 -88.87,0.0,0.00
  19673312.250
  19669113.750
  19464329.250
  23754274.750
  23811457.250
  18960220.750
  18198448.750
 22  5 24  4  0  4.0000000  0 08G08G10G21G22G23G27G31G32 -101.41,0.0,0.00
  21611725.250
  19125584.750
  21933995.250
  18513175.750
  20122879.250
  20736786.250
  20099937.250
  18369052.750
 22  5 24 16  0  4.0000000  0 08G01G06G07G13G14G17G19G30 -103.20,0.0,0.00
  19170474.250
  23516110.750
  18677045.250
  18084477.750
  23121481.250
  22411254.750
  22133171.750
  22984902.250
 22  5 28  4  0  4.0000000  0 07G08G10G21G22G27G31G32 -115.75,0.0,0.00
  18826111.750
  22235626.250
  18559232.250
  21597759.250
  18224594.250
  22609858.750
  21629217.750
 22  5 28 16  0  4.0000000  0 08G06G13G14G15G17G19G28G30 -117.54,0.0,0.00
  22763856.750
  18132196.750
  22971963.250
  20092644.250
  22469182.750
  21879981.750
  23010095.750
  23205216.750
 22  6  1  4  0  6.0000000  0 07G08G10G21G22G23G27G32 -130.08,0.0,0.00
  21963413.250
  19234135.750
  21070902.250
  18603707.250
  20705569.250
  21596339.750
  18798689.250
 22  6  1 16  0  4.0000000  0 08G02G06G11G14G17G19G28G30 -131.88,0.0,0.00
  20359106.250
  23645339.750
  20576695.250
  18417307.250
  18131459.750
  23259885.250
  18281144.250
  19064055.250
 22  6  5  4  0  4.0000000  0 08G01G08G10G21G22G23G31G32 -144.42,0.0,0.00
  18904699.750
  19108369.250
  22210584.750
  23580134.250
  21604140.750
  23920835.750
  21471971.750
  21946498.750
 22  6  5 16  0  4.0000000  0 09G06G13G14G15G17G19G24G28G30 -146.21,0.0,0.00
  20983103.250
  23884646.750
  22258222.250
  19549290.750
  22176250.250
  21068141.250
  23870309.250
  21921864.750
  23341894.250
 22  6  9  4  0  5.0000000  0 06G01G08G10G21G22G32 -158.76,0.0,0.00
  22755593.250
  23817221.250
  20762252.250
  21678248.750
  20175697.750
  20650697.750
 22  6  9 16  0  4.0000000  0 08G02G06G11G13G19G24G28G30 -160.55,0.0,0.00
  23386439.250
  21244789.250
  23486051.250
  18820649.750
  21749009.250
  23926251.250
  22408093.250
  18493280.750
 22  6 13  4  0  4.0000000  0 07G01G10G21G22G23G26G31 -173.09,0.0,0.00
  19530947.750
  18231787.750
  18712241.250
  23635544.750
  20406721.250
  20749168.750
  22557199.250
 22  6 13 16  0  4.0000000  0 08G02G06G11G13G19G20G24G30 -174.89,0.0,0.00
  19718217.750
  23924826.250
  19733108.250
  22068105.250
  18782968.750
  22625291.250
  20374330.250
  21975621.750