     2.00           OBSERVATION DATA    G(GPS)              RINEX VERSION / TYPE
goGPS-java                              10-Jun-22 21:00:06  PGM / RUN BY / DATE
                                                            MARKER NAME
                                                            MARKER NUMBER
                    Lotek Wireless Inc.                     OBSERVER / AGENCY
7                                                           REC # / TYPE / VERS
                                                            ANT # / TYPE
 -1701871.0000 -5580152.0000  2569378.0000                  APPROX POSITION XYZ
        0.0000        0.0000        0.0000                  ANTENNA: DELTA H / E / N
     2     0                                                WAVELENGTH FACT L1/2
     1    C1                                                # / TYPES OF OBSERV
  2022     4    22     2    32   40.0000000     UTC         TIME OF FIRST OBS
                                                            END OF HEADER
 22  4 22 13  0  4.0000000  0 07G03G04G07G08G09G16G27 2.15,0.0,0.00
  22574378.750
  19835279.750
  22224533.750
  21149540.750
  20205888.250
  22404473.250
  21444006.750
 22  4 23  4  0 11.0000000  0 07G10G18G22G23G27G29G32 -78.800,0.0,0.00
  21024511.250
  19783385.750
  22764331.750
  20368491.250
  22083201.750
  22595406.250
  21331673.250
 22  4 23 16  0  6.0000000  0 09G01G07G08G09G17G19G21G28G30 -1.72,0.0,0.00
  23189274.750
  21030497.250
  18658482.750
  23796163.250
  21683635.250
  23831345.750
  18122249.750
  22725111.250
  21251420.250
 22  4 24  4  0  4.0000000  0 08G10G18G22G23G24G27G29G32 -3.44,0.0,0.00
  21769741.750
  20582574.250
  23346208.750
  21181595.750
  22365115.750
  22741843.750
  23586921.750
  21944954.750
 22  4 24 16  0  7.0000000  0 09G07G09G13G14G17G19G21G28G30 -5.15,0.0,0.00
  23046334.250
  19980878.250
  19895912.250
  23890581.750
  23592202.250
  19695254.750
  20179049.750
  18713425.250
  23212543.750
 22  4 25  4  0  4.0000000  0 06G10G18G22G27G29G32 -6.87,0.0,0.00
  21219802.750
  20078554.250
  22672161.750
  22130399.250
  23226373.750
  21296553.750
 22  4 25 16  0  4.0000000  0 08G07G09G13G14G17G19G28G30 -8.59,0.0,0.00
  19575755.250
  22664577.750
  22297550.250
  20402265.750
  20017329.250
  22065094.250
  21204823.750
  19686958.250
 22  4 26  4  0  9.0000000  0 07G10G18G22G23G27G29G32 -10.31,0.0,0.00
  18882687.250
  23788322.250
  20210466.750
  18399270.250
  19735749.250
  21082555.750
  18862914.250
 22  4 26 16  0  4.0000000  0 08G01G07G09G14G17G19G28G30 -12.03,0.0,0.00
  22913293.750
  20970160.250
  18219181.750
  21775473.250
  21307205.750
  23299898.250
  22561767.750
  21024432.250
 22  4 27  4  0  5.0000000  0 06G10G18G22G23G27G32 -13.75,0.0,0.00
  18814643.250
  23773362.250
  20024376.750
  18381929.250
  19617472.250
  18705493.750
 22  4 27 16  0  4.0000000  0 09G01G07G08G09G17G19G21G28G30 -15.46,0.0,0.00
  20554946.750
  18682839.250
  22920167.250
  22079266.750
  18916537.750
  20850995.250
  21937679.250
  20233702.750
  18678960.750
 22  4 28  4  0  4.0000000  0 08G10G15G18G22G23G27G29G32 -17.18,0.0,0.00
  20893495.250
  23075543.750
  19914262.750
  21985949.250
  20511970.750
  21650898.250
  23466625.250
  20697834.250
 22  4 28 16  0  5.0000000  0 06G09G13G17G19G28G30 -18.90,0.0,0.00
  21343148.250
  20145336.750
  23926571.750
  19803624.250
  19306018.250
  23731971.750
 22  4 29  4  0  4.0000000  0 07G10G15G18G22G23G27G32 -20.62,0.0,0.00
  19539417.250
  21900589.750
  18622679.250
  20516500.750
  19209170.250
  20256864.750
  19261005.250
 22  4 29 16  0  5.0000000  0 09G01G07G08G09G14G17G21G28G30 -22.34,0.0,0.00
  20917898.750
  19185777.750
  23703306.750
  22870731.250
  19906328.750
  19216039.750
  22527904.250
  20644292.750
  19061976.250
 22  4 30  4  0  3.0000000  0 07G10G18G22G23G27G29G32 -24.05,0.0,0.00
  19199204.250
  18349177.250
  20064032.250
  18919891.250
  19882649.250
  22145872.250
  18842666.750
 22  4 30 16  0  8.0000000  0 08G01G07G13G14G17G19G21G30 -25.77,0.0,0.00
  22702418.250
  21039641.750
  23134712.750
  21723591.750
  20968976.250
  22709630.750
  18430185.250
  20853588.750
 22  5  1  4  0  3.0000000  0 06G10G18G22G23G27G32 -27.49,0.0,0.00
  19251257.250
  18472917.750
  20006281.250
  19023035.750
  19906490.250
  18820792.250
 22  5  1 16  0  6.0000000  0 06G13G14G17G19G28G30 -29.21,0.0,0.00
  18608015.250
  23275752.750
  22463412.750
  18138969.750
  23981591.750
  22384044.750
 22  5  2  4  0  9.0000000  0 07G10G18G22G23G27G29G32 -30.93,0.0,0.00
  22434180.250
  21733983.250
  23080113.250
  22258120.750
  23066958.250
  19759296.250
  21932982.250
 22  5  2 16  0  5.0000000  0 09G01G07G09G13G14G17G19G28G30 -32.65,0.0,0.00
  20186634.250
  18656799.250
  22730161.250
  20505226.750
  19255517.750
  18390750.750
  19990043.250
  19945297.250
  18345617.250
 22  5  3  4  0  5.0000000  0 07G10G18G22G23G24G27G32 -34.36,0.0,0.00
  21667406.250
  21046954.250
  22212144.250
  21541288.250
  22436559.250
  22284747.750
  21103115.750
 22  5  3 16  0  5.0000000  0 08G01G07G13G17G19G21G28G30 -36.08,0.0,0.00
  22885493.250
  21420860.250
  23145754.250
  21057941.750
  22582410.750
  18940118.250
  22643093.250
  21045418.750
 22  5  4  4  0 11.0000000  0 03G10G18G22 -37.800,0.0,0.00
  21035221.750
  20502752.750
  21478501.750
 22  5  4 16  0  4.0000000  0 08G01G13G14G17G19G21G28G30 -39.65,0.0,0.00
  22157637.250
  22358364.750
  21250135.750
  20298042.250
  21745931.250
  18317063.250
  21907172.750
  20316335.250
 22  5  5  4  0  7.0000000  0 06G10G18G22G23G24G32 -41.50,0.0,0.00
  22228906.250
  21785778.250
  22578734.250
  22204706.250
  23105241.750
  21551391.750
 22  5  5 16  0  4.0000000  0 07G01G07G13G14G17G28G30 -43.35,0.0,0.00
  23796469.250
  22458227.750
  23938461.750
  22892578.250
  21904618.250
  23532991.250
  21952479.750
 22  5  6  4  0 11.0000000  0 05G08G10G18G22G27 -45.200,0.0,0.00
  23693893.250
  20765954.250
  20419968.250
  21023800.250
  21374389.250
 22  5  6 16  0  4.0000000  0 07G07G13G14G17G19G28G30 -1.70,0.0,0.00
  22417415.250
  23753874.750
  22774657.750
  21752199.750
  23023911.250
  23394683.250
  21833429.250
 22  5  7  4  0  4.0000000  0 06G10G18G22G23G27G32 -3.40,0.0,0.00
  23892800.250
  23663939.250
  18055231.250
  23979444.750
  18517647.250
  23117368.750
 22  5  7 16  0  4.0000000  0 07G01G07G14G17G19G28G30 -5.10,0.0,0.00
  22795447.250
  21589305.750
  21875032.750
  20830237.250
  22019175.250
  22477538.250
  20938495.250
 22  5  8  4  0  4.0000000  0 07G10G18G22G23G24G27G32 -6.80,0.0,0.00
  21469437.750
  21347533.250
  21547301.750
  21607207.750
  22568829.750
  22107724.750
  20657826.750
 22  5  8 16  0  4.0000000  0 07G06G13G14G17G19G28G30 -8.50,0.0,0.00
  23954336.750
  21890614.250
  21004346.250
  19941844.250
  21046133.250
  21588963.250
  20076173.750
 22  5  9  4  0  4.0000000  0 07G08G10G18G23G24G27G32 -10.20,0.0,0.00
  22013260.250
  19282056.750
  19271770.750
  19471303.250
  20465079.250
  19943864.750
  18439231.250
 22  5  9 16  0  5.0000000  0 07G01G06G07G13G17G19G30 -11.90,0.0,0.00
  20025312.250
  21854202.750
  18932696.250
  19911998.250
  17988844.250
  19006823.250
  18148755.250
 22  5 10  4  0  4.0000000  0 07G10G18G22G23G24G27G32 -13.60,0.0,0.00
  21608984.250
  21714923.750
  21538574.750
  21849923.750
  22881685.750
  22300455.750
  20740195.750
 22  5 10 16  0  5.0000000  0 09G06G07G13G14G15G17G19G28G30 -15.30,0.0,0.00
  21047786.250
  18371465.250
  19234377.250
  18417466.250
  21810597.250
  23332024.750
  18266903.750
  18964132.750
  23516973.750
 22  5 11  4  0  4.0000000  0 07G08G10G18G23G24G27G32 -17.00,0.0,0.00
  18668916.250
  22031617.250
  22258569.750
  22324589.750
  23400016.750
  22758772.750
  21142154.250
 22  5 11 16  0  4.0000000  0 09G01G06G07G13G14G17G19G28G30 -18.70,0.0,0.00
  21339855.750
  22779444.250
  20352705.750
  21101251.250
  20309557.250
  19227159.250
  20070273.750
  20836461.250
  19436518.750
 22  5 12  4  0  4.0000000  0 06G08G18G22G27G31G32 -20.40,0.0,0.00
  21927887.250
  19688263.750
  19135703.250
  20104535.750
  22128977.750
  18430797.250
 22  5 12 16  0  5.0000000  0 06G07G13G15G17G19G28 -22.10,0.0,0.00
  23008598.250
  23643294.750
  20167318.750
  21792737.250
  22546713.750
  23377297.250
 22  5 13  4  0  4.0000000  0 07G08G10G22G23G24G27G32 -23.80,0.0,0.00
  18481746.750
  21921746.250
  21663334.750
  22319831.250
  23498675.250
  22737342.250
  21005794.250
 22  5 13 16  0  4.0000000  0 08G01G07G14G17G19G21G28G30 -25.50,0.0,0.00
  20649260.750
  19760048.750
  19524598.250
  18455304.250
  19120372.750
  23633250.750
  20009566.250
  18713201.750
 22  5 14  4  0  4.0000000  0 07G10G18G22G23G24G27G32 -27.20,0.0,0.00
  23645873.750
  18265608.750
  23333668.250
  18101197.750
  19339347.750
  18517992.750
  22723848.750
 22  5 14 16  0  4.0000000  0 08G01G06G07G14G17G19G28G30 -28.90,0.0,0.00
  23718688.750
  18522787.250
  22875449.250
  22537323.250
  21481936.750
  22057386.250
  23000145.250
  21764238.750
 22  5 15  4  0  4.0000000  0 06G18G22G23G27G31G32 -30.60,0.0,0.00
  21722858.750
  20608051.750
  21474405.250
  21895098.750
  23308008.250
  20046213.250
 22  5 15 16  0  4.0000000  0 07G01G13G14G17G19G28G30 -32.30,0.0,0.00
  23242638.750
  22747195.250
  21998301.250
  20961403.250
  21447125.250
  22438073.750
  21268549.750
 22  5 16  4  0  4.0000000  0 08G08G10G18G22G23G27G31G32 -34.00,0.0,0.00
  22370439.750
  19892002.250
  20786606.750
  19485278.750
  20450682.750
  20879684.750
  22076341.250
  18971616.750
 22  5 16 16  0  6.0000000  0 06G07G13G17G19G28G30 -35.70,0.0,0.00
  20716008.750
  20911181.750
  19144891.750
  19540326.250
  20574265.750
  19477739.250
 22  5 17  4  0  4.0000000  0 07G08G10G18G22G27G31G32 -37.40,0.0,0.00
  19460887.250
  22993864.750
  18037692.750
  22546506.750
  18052617.250
  19027640.250
  22081103.750
 22  5 17 16  0  5.0000000  0 07G01G06G07G14G17G28G30 -39.10,0.0,0.00
  18689860.250
  18789904.750
  23969354.250
  23296734.750
  22310065.750
  23687476.250
  22669251.750
 22  5 18  4  0  4.0000000  0 07G08G10G18G22G27G31G32 -40.80,0.0,0.00
  21125247.250
  18672736.750
  19861049.750
  18189243.250
  19798706.250
  20547113.250
  23767915.750
 22  5 18 16  0  4.0000000  0 09G01G07G13G14G15G17G19G28G30 -42.50,0.0,0.00
  20737160.750
  20059240.750
  20043771.750
  19267381.250
  22369524.750
  18311764.750
  18530233.250
  19632149.750
  18698317.250
 22  5 19  4  0  4.0000000  0 08G08G10G18G22G23G27G31G32 -44.20,0.0,0.00
  21331335.250
  18884141.750
  20224517.250
  18368921.250
  19607115.250
  20085523.750
  20603013.750
  17999787.250
 22  5 19 16  0  4.0000000  0 08G01G13G14G15G17G19G28G30 -45.90,0.0,0.00
  21784589.750
  21024611.250
  20228016.250
  23315089.750
  19307359.250
  19438054.250
  20565537.750
  19722584.750
 22  5 20  4  0  4.0000000  0 06G08G10G22G23G27G32 -47.60,0.0,0.00
  21309298.250
  18862406.750
  18319821.750
  19641029.250
  20143022.250
  17998354.750
 22  5 20 16  0  5.0000000  0 07G01G06G07G14G17G28G30 -49.30,0.0,0.00
  21331542.250
  20683179.750
  20725040.750
  19682379.750
  18800232.750
  19991237.750
  19245632.250
 22  5 21  4  0  4.0000000  0 09G08G10G18G21G22G23G27G31G32 -51.00,0.0,0.00
  23508967.250
  21057701.750
  22706831.750
  18219475.750
  20491835.250
  21892482.250
  22420847.750
  22465950.250
  20217516.250
 22  5 21 16  0  4.0000000  0 09G01G06G07G13G14G17G19G28G30 -52.70,0.0,0.00
  18408807.750
  23499429.250
  23830555.750
  23510280.750
  22658648.750
  21817697.250
  21775688.750
  22937726.750
  22294483.250
 22  5 22  4  0  5.0000000  0 06G08G10G22G23G27G32 -54.40,0.0,0.00
  22966442.250
  20506278.250
  19920872.250
  21397973.250
  21955287.250
  19693315.250
 22  5 22 16  0  4.0000000  0 08G01G06G07G13G14G17G28G30 -56.10,0.0,0.00
  22713638.750
  21547383.750
  22169761.250
  21752433.750
  20865930.750
  20069304.250
  21114095.750
  20578681.250
 22  5 23  4  0  7.0000000  0 09G08G10G18G21G22G23G24G27G31 -57.80,0.0,0.00
  19304834.750
  22828425.250
  18795229.250
  19741383.750
  22226490.750
  23778510.750
  19745671.750
  18369833.250
  23926738.750
 22  5 23 16  0  4.0000000  0 08G06G07G13G14G17G19G28G30 -59.50,0.0,0.00
  21112452.750
  22027184.750
  21512649.250
  20588396.750
  19837896.250
  19627992.250
  20803662.750
  20382499.750
 22  5 24  4  0  5.0000000  0 06G08G10G21G22G27G32 -61.20,0.0,0.00
  21674637.250
  19184427.250
  21972366.250
  18570332.750
  20811695.250
  18434132.250
 22  5 24 16  0  4.0000000  0 08G01G06G13G14G17G19G28G30 -62.90,0.0,0.00
  22408370.750
  20712517.250
  21310704.250
  20344493.250
  19642406.750
  19350628.250
  20525856.750
  20223188.750
 22  5 25  4  0 10.0000000  0 08G08G10G21G22G23G27G31G32 -64.600,0.0,0.00
  22743911.750
  20232651.750
  22895518.250
  19608648.750
  21298660.750
  21953535.750
  21024071.750
  19518017.750
 22  5 25 16  0  5.0000000  0 07G01G06G13G14G17G28G30 -1.69,0.0,0.00
  19490482.750
  23451460.750
  18306209.750
  23277914.250
  22639006.750
  23413717.250
  23270786.750
 22  5 26  4  0  4.0000000  0 09G08G10G18G21G22G23G27G31G32 -3.38,0.0,0.00
  19736733.250
  23192483.750
  19676455.250
  19705166.250
  22559607.250
  18336844.750
  19033161.250
  23797368.250
  22523596.250
 22  5 26 16  0  4.0000000  0 08G06G07G13G14G15G17G19G30 -5.07,0.0,0.00
  23493504.250
  19364263.250
  18549096.250
  23471301.250
  20568710.750
  22884572.250
  22413939.750
  23555292.250
 22  5 27  4  0  4.0000000  0 07G08G10G21G22G27G31G32 -6.76,0.0,0.00
  18877252.750
  22304831.250
  18695430.250
  21668069.750
  18240079.750
  22760924.250
  21675284.250
 22  5 27 16  0  4.0000000  0 06G13G14G15G17G19G28 -8.45,0.0,0.00
  20718839.250
  19593358.250
  22700082.250
  19059510.750
  18512767.250
  19653757.750
 22  5 28  4  0  4.0000000  0 07G08G10G21G22G27G31G32 -10.14,0.0,0.00
  22041717.250
  19441894.750
  21707132.750
  18803775.750
  21468470.250
  19751010.750
  18853333.750
 22  5 28 16  0  4.0000000  0 06G11G14G17G19G28G30 -11.83,0.0,0.00
  22242481.750
  19373920.750
  18893915.750
  18273136.750
  19394063.250
  19652085.250
 22  5 29  4  0  9.0000000  0 08G10G18G21G22G23G27G31G32 -13.520,0.0,0.00
  18895552.250
  21858584.750
  21036951.750
  18257386.750
  20215141.750
  21018376.750
  19055397.250
  18349646.750
 22  5 29 16  0  5.0000000  0 06G02G13G17G19G28G30 -1.71,0.0,0.00
  18550970.250
  23364662.750
  21701982.750
  21005336.750
  22100486.250
  22511150.250
 22  5 30  4  0  7.0000000  0 07G08G10G18G22G23G27G31 -3.42,0.0,0.00
  22024140.750
  19353178.250
  22482744.250
  18717107.750
  20735300.250
  21574616.750
  19362386.250
 22  5 30 16  0  4.0000000  0 07G02G06G07G11G17G19G30 -5.12,0.0,0.00
  19799943.750
  23001744.250
  20031725.750
  20032569.250
  23195099.250
  22429308.250
  18057579.750
 22  5 31  4  0  5.0000000  0 06G10G18G23G25G27G31 -6.83,0.0,0.00
  21279357.250
  18569758.250
  22720619.250
  18396691.750
  23593714.750
  21147825.750
 22  5 31 16  0  4.0000000  0 09G02G06G11G13G14G17G19G28G30 -8.54,0.0,0.00
  18517122.750
  21773837.250
  18741255.250
  23830632.250
  22473888.250
  22159578.250
  21326300.750
  22361185.250
  23067818.750
 22  6  1  4  0  4.0000000  0 07G08G10G21G22G27G31G32 -10.25,0.0,0.00
  19066789.750
  22314734.250
  18097145.750
  21686845.750
  18725325.250
  22044480.250
  21899987.750
 22  6  1 16  0  4.0000000  0 06G06G14G17G19G28G30 -11.96,0.0,0.00
  20573263.250
  21405750.750
  21144147.750
  20246141.250
  21245600.250
  22108618.750
 22  6  2  4  0  5.0000000  0 07G08G10G21G22G27G31G32 -13.67,0.0,0.00
  18908243.250
  22113530.250
  23775516.750
  21492646.750
  18615691.250
  21704830.750
  21743705.250
 22  6  2 16  0  4.0000000  0 09G02G06G11G14G17G19G24G28G30 -15.37,0.0,0.00
  19392384.750
  22768429.750
  19595688.750
  23731998.750
  23524210.750
  22563742.250
  19772051.750
  23524415.250
  18546179.750
 22  6  3  4  0 11.0000000  0 06G08G10G21G22G27G31 -17.08,0.0,0.00
  23748985.750
  20917832.250
  22457405.750
  20301865.750
  23505912.750
  20371902.750
 22  6  3 16  0  4.0000000  0 09G02G06G11G14G17G19G24G28G30 -18.79,0.0,0.00
  20334275.750
  23775282.250
  20525432.250
  18869585.250
  18711937.250
  23686981.750
  20733764.750
  18611156.750
  19790141.250
 22  6  4  4  0  5.0000000  0 07G01G08G10G21G22G31G32 -20.50,0.0,0.00
  23511827.250
  23606983.250
  20734880.250
  22161173.750
  20125197.750
  20060662.250
  20449204.250
 22  6  4 16  0  7.0000000  0 07G02G14G15G17G19G24G28 -22.21,0.0,0.00
  22277283.250
  21006712.750
  18287191.250
  20900283.750
  19821210.750
  22702391.250
  20696745.250
 22  6  5  4  0  7.0000000  0 06G10G21G23G25G31G32 -23.92,0.0,0.00
  21091889.250
  22401780.750
  22833288.750
  23782760.250
  20287412.750
  20847855.750
 22  6  5 16  0  4.0000000  0 09G02G06G11G14G17G19G24G28G30 -25.62,0.0,0.00
  19641486.250
  23221993.250
  19804066.750
  18559870.250
  18500553.750
  23362583.750
  20090241.250
  18197239.250
  19699914.750
 22  6  6  4  0  4.0000000  0 09G01G08G10G21G22G23G25G31G32 -27.33,0.0,0.00
  21874518.750
  22399785.750
  19444642.750
  20641650.750
  18847206.750
  21244937.750
  22052861.750
  18515883.250
  19240098.750
 22  6  6 16  0  6.0000000  0 09G02G06G11G13G17G19G24G28G30 -29.04,0.0,0.00
  19304334.750
  22960203.250
  19450772.250
  20128816.250
  18402093.250
  23210503.250
  19778234.250
  17997568.250
  19666399.250
 22  6  7  4  0  8.0000000  0 09G01G08G10G21G22G23G27G31G32 -30.75,0.0,0.00
  21997234.750
  22740971.250
  19744516.750
  20826241.250
  19152347.250
  21605173.250
  22655107.250
  18690778.250
  19578834.250
 22  6  7 16  0  5.0000000  0 06G06G11G13G14G28G30 -32.46,0.0,0.00
  19587113.750
  21979438.750
  22919116.250
  21150079.750
  20675966.250
  22510058.750
 22  6  8  4  0  4.0000000  0 09G01G08G10G21G22G23G25G31G32 -34.17,0.0,0.00
  19221443.750
  20175225.250
  23135464.250
  18111366.750
  22547650.250
  19058021.750
  19581903.250
  21963856.250
  23005769.250
 22  6  8 16  0  4.0000000  0 08G02G06G11G14G17G19G28G30 -35.87,0.0,0.00
  18473958.250
  22286684.750
  18584832.250
  23957989.750
  18032132.250
  22742180.250
  23426247.750
  19430023.750
 22  6  9  4  0  4.0000000  0 06G10G21G22G23G31G32 -37.58,0.0,0.00
  22277554.750
  23141054.250
  21694553.250
  18257566.250
  20989749.250
  22183506.250
 22  6  9 16  0  4.0000000  0 09G02G06G11G14G17G19G24G28G30 -39.29,0.0,0.00
  23554501.750
  21454496.750
  23646174.250
  23231133.250
  23337594.250
  22005426.750
  18110276.250
  22639340.250
  18810616.750
 22  6 10  4  0 10.0000000  0 06G10G21G23G25G27G32 -41.000,0.0,0.00
  21029912.250
  21781088.750
  23064831.750
  23306935.250
  18145549.250
  20968045.250
 22  6 10 16  0 11.0000000  0 09G02G06G11G12G14G19G24G28G30 -0.71,0.0,0.00
  20227670.250
  18229989.250
  20295211.250
  22919216.750
  20125767.250
  18892085.750
  20815779.750
  19462734.250
  21827022.750