     2.00           OBSERVATION DATA    G(GPS)              RINEX VERSION / TYPE
goGPS-java                              02-Jun-19 23:58:12  PGM / RUN BY / DATE
                                                            MARKER NAME
                                                            MARKER NUMBER
                    Lotek Wireless Inc.                     OBSERVER / AGENCY
7                                                           REC # / TYPE / VERS
                                                            ANT # / TYPE
 -1701996.0000 -5579850.0000  2569947.0000                  APPROX POSITION XYZ
        0.0000        0.0000        0.0000                  ANTENNA: DELTA H / E / N
     2     0                                                WAVELENGTH FACT L1/2
     1    C1                                                # / TYPES OF OBSERV
  2018     5     8    20    19   29.0000000     UTC         TIME OF FIRST OBS
                                                            END OF HEADER
 18  5 12  0  0  4.0000000  0 07G04G10G15G20G21G29G32 21598.16,0.0
  19840495.250
  23247700.250
  23068247.750
  21998231.250
  22557070.750
  23015924.750
  18570105.750
 18  5 16  0  0 11.0000000  0 08G10G15G16G20G21G27G29G32 +21589.600,0.0
  21989889.750
  22521708.250
  19220188.250
  21025148.750
  21260734.250
  23660525.750
  22544302.250
  22882605.250
 18  5 20  0  0  4.0000000  0 07G10G15G20G21G24G27G29 21581.04,0.0
  21974526.750
  23233957.750
  21254464.250
  21216313.250
  23039098.250
  23349717.750
  23317217.750
 18  5 24  0  0  5.0000000  0 06G10G15G20G21G24G32 21572.48,0.0
  21490427.750
  23492520.750
  20984011.250
  20728368.250
  22560452.750
  21622728.750
 18  5 28  0  0  4.0000000  0 07G10G14G20G21G24G27G32 21563.92,0.0
  19756741.250
  21406328.750
  19437711.750
  19037574.250
  20911874.750
  20738321.250
  19591402.750
 18  6  1  0  0  8.0000000  0 07G10G14G20G21G24G27G32 21555.36,0.0
  21356887.250
  22561548.250
  21205859.750
  20741244.750
  22689046.750
  22270996.750
  20962528.250
 18  6  5  0  0  4.0000000  0 06G10G14G20G21G27G32 21546.80,0.0
  21747749.250
  22565736.250
  21745259.250
  21307633.250
  22690552.750
  21205107.750
 18  6  9  0  0  8.0000000  0 09G08G10G14G20G21G24G27G31G32 21538.24,0.0
  22420064.250
  19437834.750
  19931966.250
  19572783.250
  19255371.250
  21415241.750
  20505388.250
  22208317.750
  18826933.750
 18  6 13  0  0  3.0000000  0 06G10G14G21G27G31G32 21529.68,0.0
  20231801.750
  20473077.750
  20381917.750
  21509396.750
  22406778.750
  19627784.750
 18  6 17  0  0  4.0000000  0 08G08G10G14G18G21G27G31G32 21521.12,0.0
  19619535.750
  22847287.750
  22898591.250
  20106025.250
  23399791.750
  18410766.250
  18414591.750
  22315152.750
 18  6 21  0  0  4.0000000  0 07G10G14G18G20G21G31G32 21512.56,0.0
  18548425.250
  18475192.750
  21186876.750
  19030754.250
  19572198.250
  19511086.750
  18142847.750
 18  6 25  0  0  6.0000000  0 09G08G10G14G18G20G21G27G31G32 21504.00,0.0
  22633068.750
  19774050.250
  19627578.750
  21806059.250
  20450368.750
  21324012.750
  22033297.250
  20165306.250
  19529797.750
 18  6 29  0  0  6.0000000  0 07G11G14G18G20G21G27G31 21495.44,0.0
  18325249.750
  21158716.750
  22800058.250
  22260550.250
  23435125.750
  23966975.750
  21192337.750
 18  7  3  0  0  4.0000000  0 07G08G10G14G18G27G31G32 21486.88,0.0
  23614986.750
  20476683.250
  20271941.250
  21391474.750
  23437231.250
  19828505.750
  20585430.250
 18  7  7  0  0  4.0000000  0 09G01G08G10G11G14G18G27G31G32 21478.33,0.0
  23114674.250
  23840821.250
  20549413.250
  22598138.750
  20325451.250
  20963555.250
  23798438.250
  19461079.750
  20810723.250
 18  7 11  0  0  4.0000000  0 07G10G11G14G18G22G31G32 21469.77,0.0
  21755804.750
  23412311.750
  21491029.250
  21717332.250
  18585309.750
  20283446.250
  22127875.250
 18  7 15  0  0  4.0000000  0 09G01G10G11G14G18G20G22G31G32 21461.21,0.0
  22878595.750
  21681055.750
  22992926.750
  21342002.250
  21244293.750
  23584481.250
  23785833.250
  19883317.750
  22113629.750
 18  7 19  0  0  4.0000000  0 08G01G04G10G11G18G22G26G31 21452.65,0.0
  23732061.250
  18435558.750
  23189706.750
  18203698.750
  22408876.250
  18506819.750
  18625162.750
  21122684.750
 18  7 23  0  0  4.0000000  0 08G04G10G14G18G25G26G31G32 21444.09,0.0
  23358565.750
  22974335.250
  22327066.750
  21893306.750
  18814109.750
  23532691.250
  20679612.250
  23327799.750
 18  7 27  0  0  4.0000000  0 09G01G04G10G11G14G18G22G31G32 21435.53,0.0
  23334269.750
  23496396.250
  18005383.250
  18496594.250
  23119563.750
  22676833.250
  23539634.750
  21526824.750
  18225535.250
 18  7 31  0  0  4.0000000  0 09G01G04G10G14G22G23G26G31G32 21426.97,0.0
  21540028.250
  21458301.250
  22867990.750
  21596737.250
  21324460.750
  18404026.250
  21556604.750
  20150448.750
  22827635.250
 18  8  4  0  0  4.0000000  0 09G03G04G11G14G22G23G26G31G32 21418.41,0.0
  19012854.750
  23961039.750
  20174318.250
  18634945.750
  23747447.250
  20929846.750
  18000004.250
  23393291.750
  19965145.750
 18  8  8  0  0  4.0000000  0 09G01G03G04G14G18G22G23G26G31 21409.85,0.0
  21246961.750
  21105969.250
  20358353.750
  21467757.750
  21522587.750
  20025004.750
  23242926.250
  20312373.250
  20492738.750
 18  8 12  0  0  4.0000000  0 08G01G03G16G18G22G23G26G31 21401.29,0.0
  18410660.250
  23504196.750
  23734044.250
  18930827.250
  22647531.250
  19798333.750
  23045058.250
  23926955.250
 18  8 19  8  0  4.0000000  0 09G01G06G07G11G13G17G19G28G30 21385.60,0.0
  22381410.250
  20490902.250
  22024875.250
  23522413.250
  21122833.750
  19463286.250
  19322391.750
  20488524.250
  19801439.250
 18  8 25  8  0  4.0000000  0 08G01G06G15G17G19G24G28G30 21372.76,0.0
  23622270.250
  20130309.250
  23823882.750
  20225955.250
  19578977.250
  23248678.750
  20984736.750
  20928624.250
 18  8 31  8  0  4.0000000  0 08G02G06G13G15G17G19G24G30 21359.92,0.0
  21587521.250
  18963649.750
  21964022.750
  23516731.750
  20087319.250
  19022037.750
  21823582.250
  21222907.750
 18  9  6  8  0  4.0000000  0 07G06G12G15G17G19G24G28 21347.08,0.0
  20172981.250
  18577641.250
  19507556.250
  22153693.250
  20783272.250
  22747360.250
  22274730.250
 18  9 12  8  0  3.0000000  0 06G06G12G17G19G24G28 21334.24,0.0
  21551418.750
  19263171.750
  18109297.750
  22492918.250
  23663169.750
  18069120.750
 18  9 18  8  0  4.0000000  0 07G02G06G12G17G19G24G28 21321.40,0.0
  19363134.250
  18502927.750
  21300647.250
  21383800.250
  19630356.250
  20187106.250
  21274149.750
 18  9 30  8  0  4.0000000  0 06G02G06G12G17G19G24 21295.72,0.0
  20612462.750
  21136711.750
  21525069.250
  23976236.250
  22137464.750
  22053758.750
 18 10 12  8  0  4.0000000  0 06G02G05G06G12G24G25 21270.04,0.0
  21248400.250
  22022778.250
  22913450.750
  20740581.250
  23335733.750
  23564129.250
 18 10 24  8  0  4.0000000  0 06G02G12G19G24G25G29 21244.36,0.0
  21381974.750
  19735338.250
  23689071.250
  23973834.750
  21422778.750
  23475050.750
 18 11  5  8  0  5.0000000  0 06G02G05G12G13G25G29 21218.68,0.0
  21829726.250
  19401812.250
  19827584.250
  23597570.750
  20243425.750
  21783870.750
 18 11 17  8  0  4.0000000  0 06G05G12G13G15G21G25 21193.00,0.0
  22424913.750
  23405996.250
  18575825.250
  18471157.750
  19421287.250
  22710340.750
 18 11 29  8  0  4.0000000  0 06G02G05G13G15G25G29 21167.33,0.0
  20278337.750
  18709008.250
  18385731.750
  23499822.250
  18577642.250
  22424633.750
 18 12 11  8  0  4.0000000  0 08G05G10G13G15G20G21G26G29 21141.65,0.0
  21610634.750
  21072377.750
  19578653.750
  23762128.250
  19088872.250
  19994777.750
  21514428.250
  23215886.750
 18 12 23  8  0  4.0000000  0 07G10G13G15G20G21G24G29 21115.97,0.0
  22430200.750
  23080032.250
  20452233.750
  20905230.750
  21664768.250
  23704905.250
  20338689.750
 19  1  4  8  0  4.0000000  0 09G10G15G16G20G21G24G27G29G32 21090.29,0.0
  19135326.250
  19076288.250
  22203886.250
  18039999.250
  18307589.750
  20140243.750
  21478426.750
  19264541.750
  20400033.250
 19  1 16  8  0  4.0000000  0 07G10G14G15G20G21G27G32 21064.61,0.0
  19369926.250
  20740178.750
  21553249.750
  18655761.750
  18543104.250
  20782559.250
  19456428.750
 19  1 28  8  0  4.0000000  0 07G08G10G20G21G24G27G32 21038.93,0.0
  22418301.250
  19493400.250
  19179552.750
  19204512.250
  21243898.750
  20681268.250
  18924781.750
 19  2  9  8  0  4.0000000  0 07G08G10G14G21G27G31G32 21013.25,0.0
  18958405.250
  22265879.250
  22054095.250
  23183443.250
  18063705.750
  23902481.750
  21703130.250
 19  2 15  8  0  4.0000000  0 08G10G14G18G20G21G27G31G32 21000.41,0.0
  23131052.250
  22838923.250
  18831772.250
  23734196.750
  18980913.250
  19411938.250
  23932473.750
  22696560.250
 19  2 21  8  0  5.0000000  0 07G10G11G14G18G20G31G32 20987.57,0.0
  21745465.250
  18361422.250
  21454801.750
  22631510.250
  22703838.250
  21633843.250
  21501167.250
 19  2 27  8  0  4.0000000  0 08G01G10G14G18G20G25G31G32 20974.73,0.0
  22096505.250
  19526125.750
  19253275.750
  19697152.250
  20858086.750
  22586496.250
  18602956.750
  19452227.250
 19  3  5  8  0  4.0000000  0 09G01G10G14G18G20G22G25G31G32 20961.89,0.0
  17999242.750
  22461533.250
  22160748.750
  22029137.250
  18165678.750
  18903692.250
  19047066.750
  20853664.250
  22481937.750
 19  3 11  8  0  5.0000000  0 09G01G10G11G18G20G25G26G31G32 20949.06,0.0
  20631890.250
  20099117.750
  21028553.250
  19181475.750
  22137546.750
  22253755.750
  21739805.250
  23941420.250
  20089120.750
 19  3 15  0  0  4.0000000  0 08G02G05G12G13G15G20G25G29 20941.21,0.0
  21540840.750
  19138428.250
  19719272.750
  21119534.250
  20872569.250
  22579502.750
  19210217.250
  18989781.250
 19  3 19  0  0  4.0000000  0 06G02G12G13G15G20G25 20932.65,0.0
  19759540.250
  18252127.750
  18737365.750
  18284345.250
  19951449.250
  23439704.750
 19  3 23  0  0  4.0000000  0 08G02G05G12G13G15G20G25G29 20924.09,0.0
  19132832.250
  23225364.250
  23978177.250
  23574157.250
  22889428.750
  18518684.750
  22919432.750
  21429599.250
 19  3 27  0  0  4.0000000  0 07G05G12G13G15G20G21G25 20915.53,0.0
  23741844.250
  18555420.750
  23319984.250
  22380023.250
  23950384.750
  18250628.750
  23293526.750
 19  3 31  0  0  6.0000000  0 08G05G12G13G15G20G21G25G29 20906.97,0.0
  20056400.250
  20901037.750
  18939119.250
  23721912.750
  19217125.250
  19766360.250
  19496668.750
  22739156.250
 19  4  4  0  0  5.0000000  0 06G10G12G20G21G25G29 20898.41,0.0
  21043510.250
  21590273.750
  18900769.750
  19634772.750
  20089874.250
  22771083.250
 19  4  8  0  0  4.0000000  0 07G10G13G15G20G21G26G29 20889.85,0.0
  21639631.750
  20214784.250
  18440807.750
  19640627.750
  20492674.750
  21992915.250
  23898598.750
 19  4 12  0  0  4.0000000  0 07G10G13G15G20G21G26G29 20881.29,0.0
  19079062.750
  18313246.750
  22264140.250
  23228492.750
  18131143.250
  19796444.250
  21922465.250
 19  4 16  0  0  7.0000000  0 08G10G13G15G16G20G21G26G29 20872.73,0.0
  20353649.750
  20300006.250
  18001764.250
  22287062.250
  18664874.750
  19543191.750
  21475440.750
  23831641.750
 19  4 20  0  0  9.0000000  0 06G10G13G15G20G21G29 20864.17,0.0
  18520350.750
  19222247.250
  22694155.750
  22985174.250
  23787144.250
  22680178.250
 19  4 24  0  0  7.0000000  0 06G10G15G16G20G21G29 20855.61,0.0
  19181350.250
  23947947.250
  21578062.250
  23801060.250
  18485987.250
  18063761.250
 19  4 28  0  0  4.0000000  0 07G10G15G16G20G21G26G27 20847.05,0.0
  18822770.250
  18239500.750
  21515277.750
  23589418.250
  18121572.750
  21288712.250
  21407004.750