     2.00           OBSERVATION DATA    G(GPS)              RINEX VERSION / TYPE
goGPS-java                              02-Jun-22 20:34:43  PGM / RUN BY / DATE
                                                            MARKER NAME
                                                            MARKER NUMBER
                    Lotek Wireless Inc.                     OBSERVER / AGENCY
7                                                           REC # / TYPE / VERS
                                                            ANT # / TYPE
 -1701871.0000 -5580152.0000  2569378.0000                  APPROX POSITION XYZ
        0.0000        0.0000        0.0000                  ANTENNA: DELTA H / E / N
     2     0                                                WAVELENGTH FACT L1/2
     1    C1                                                # / TYPES OF OBSERV
  2022     4    21     3     2   43.0000000     UTC         TIME OF FIRST OBS
                                                            END OF HEADER
 22  4 21 13  0 10.0000000  0 07G03G04G07G08G09G16G30 -59.520,0.0,0.00
  23631061.250
  21018159.750
  23469557.750
  22429547.750
  21475587.750
  23452601.750
  19268848.250
 22  4 25 16  0 10.0000000  0 09G08G09G13G14G17G19G21G28G30 -11.200,0.0,0.00
  23336643.250
  22488557.250
  22116346.750
  20222697.750
  19837302.250
  21884402.250
  22566479.250
  21025242.750
  19506800.750
 22  4 26  4  0  7.0000000  0 07G10G18G22G23G27G29G32 -1.22,0.0,0.00
  20063416.250
  18974839.250
  21388247.750
  19581372.250
  20914880.250
  22270243.750
  20041533.250
 22  4 26 16  0  4.0000000  0 07G07G09G14G17G19G28G30 -2.44,0.0,0.00
  20669981.250
  23922079.750
  21474220.750
  21003468.750
  22993809.250
  22260082.750
  20721651.250
 22  4 27  4  0  6.0000000  0 07G10G15G18G22G23G29G32 -3.66,0.0,0.00
  18728967.750
  20741473.250
  23690746.250
  19933994.750
  18298642.250
  21124989.750
  18616528.750
 22  4 27 16  0  4.0000000  0 06G07G13G14G17G19G28 -4.88,0.0,0.00
  20520779.250
  22985910.750
  21299954.750
  20750347.750
  22682049.750
  22069523.250
 22  4 28  4  0  4.0000000  0 07G10G18G22G23G24G27G32 -6.11,0.0,0.00
  23190340.750
  22214449.750
  18282332.750
  22811242.250
  23805783.750
  23945807.250
  22991558.750
 22  4 28 16  0  4.0000000  0 08G07G09G13G14G17G19G28G30 -7.33,0.0,0.00
  19254542.250
  22805491.250
  21594204.750
  20005270.250
  19381625.250
  21251656.750
  20758705.750
  19188104.750
 22  4 29  4  0  4.0000000  0 06G10G18G22G23G27G32 -8.55,0.0,0.00
  22460103.750
  21547252.750
  23432251.250
  22132515.250
  23175776.750
  22178461.250
 22  4 29 16  0  7.0000000  0 08G09G13G14G17G19G21G28G30 -9.77,0.0,0.00
  18193480.250
  22708047.750
  21213141.750
  20519683.750
  22324174.250
  23839785.750
  21950256.250
  20367287.250
 22  4 30  4  0  7.0000000  0 08G10G15G18G22G23G24G27G32 -10.99,0.0,0.00
  22943488.750
  19500424.750
  22099042.250
  23801275.750
  22667908.250
  23603232.250
  23624904.750
  22582448.750
 22  4 30 16  0  9.0000000  0 09G01G07G13G14G17G19G21G28G30 -12.21,0.0,0.00
  18838356.750
  23175803.250
  19266878.250
  23856923.250
  23099311.250
  18839776.750
  20568865.250
  18581978.250
  22985625.750
 22  5  1  4  0  5.0000000  0 06G10G18G22G23G27G32 -13.43,0.0,0.00
  22145228.250
  21372414.750
  22893913.750
  21920454.750
  22799064.250
  21710888.250
 22  5  1 16  0  6.0000000  0 06G07G09G14G17G28G30 -14.65,0.0,0.00
  19669832.750
  23628757.750
  20310421.750
  19495336.250
  21015359.750
  19417645.750
 22  5  2  4  0  6.0000000  0 07G10G18G22G23G24G27G32 -15.87,0.0,0.00
  18956825.750
  18261203.250
  19598358.750
  18783365.250
  19685382.250
  19588967.250
  18453111.250
 22  5  2 16  0  4.0000000  0 08G01G07G13G14G17G21G28G30 -17.09,0.0,0.00
  22096313.250
  20570792.250
  22411324.750
  21166175.750
  20299049.250
  18049920.750
  21855084.250
  20255464.250
 22  5  3  4  0  4.0000000  0 06G10G18G22G23G27G32 -18.32,0.0,0.00
  18892441.250
  18277841.250
  19431719.750
  18769564.250
  19509367.750
  18325144.250
 22  5  3 16  0  4.0000000  0 07G01G07G14G17G19G28G30 -19.54,0.0,0.00
  20560104.250
  19100037.750
  19644990.250
  18731139.750
  20250584.250
  20317571.750
  18720189.250
 22  5  4  4  0  4.0000000  0 07G10G18G22G23G24G27G32 -20.76,0.0,0.00
  18759236.750
  18231170.750
  19199278.750
  18687324.750
  19582273.250
  19367187.750
  18133002.250
 22  5  4 16  0  4.0000000  0 08G01G07G13G14G17G21G28G30 -21.98,0.0,0.00
  23978978.750
  22583051.250
  18180668.750
  23072714.750
  22117886.750
  20146602.250
  23728767.750
  22137996.750
 22  5  5  4  0 11.0000000  0 04G10G18G22G27 -23.200,0.0,0.00
  20419965.750
  19985824.250
  20762428.250
  21025411.750
 22  5  5 16  0  4.0000000  0 07G07G13G14G17G19G28G30 -1.18,0.0,0.00
  18140342.250
  19599621.750
  18563667.250
  23566693.250
  18925267.250
  19201256.750
  23619057.250
 22  5  6  4  0  4.0000000  0 06G10G18G22G23G27G32 -2.35,0.0,0.00
  23606884.250
  23276004.250
  23852632.250
  23641933.250
  18221127.250
  22874687.750
 22  5  6 16  0  4.0000000  0 06G13G14G17G19G28G30 -3.53,0.0,0.00
  22104166.250
  21124084.750
  20102363.250
  21375090.750
  21744484.750
  20183026.250
 22  5  7  4  0  7.0000000  0 07G10G18G22G23G24G27G32 -4.70,0.0,0.00
  22487714.750
  22260072.250
  22646416.750
  22574618.750
  23510352.750
  23108930.250
  21712736.250
 22  5  7 16  0  9.0000000  0 08G01G07G13G14G17G19G28G30 -5.880,0.0,0.00
  21796027.250
  20590712.250
  21805262.750
  20876011.250
  19830749.250
  21018314.750
  21478430.750
  19939176.750
 22  5  8  4  0  4.0000000  0 06G10G18G22G23G24G32 -2.00,0.0,0.00
  19989406.250
  19869615.250
  20066124.250
  20128111.750
  21090267.250
  19177403.750
 22  5  8 16  0 10.0000000  0 05G01G07G14G21G30 -4.000,0.0,0.00
  22891371.750
  21745134.250
  21953014.750
  19469081.750
  21025327.750
 22  5  9  4  0  4.0000000  0 07G10G18G22G23G24G27G32 -2.06,0.0,0.00
  23306536.750
  23298704.750
  23306528.750
  23496882.250
  18495542.250
  23969041.750
  22463219.250
 22  5  9 16  0  5.0000000  0 06G01G06G07G17G19G30 -4.12,0.0,0.00
  18438493.250
  20263294.250
  23343145.750
  22397157.250
  23413158.250
  22557628.250
 22  5 10  4  0  4.0000000  0 08G08G10G18G22G23G24G27G32 -6.18,0.0,0.00
  20198885.750
  23516379.250
  23625434.750
  23444473.750
  23758630.750
  18795556.250
  18213020.250
  22647218.250
 22  5 10 16  0  9.0000000  0 08G01G06G13G14G17G19G28G30 -8.240,0.0,0.00
  21466809.750
  23096585.250
  21288443.750
  20472340.250
  19391390.250
  20318495.250
  21018280.750
  19577352.750
 22  5 11  4  0  4.0000000  0 07G08G10G18G23G24G27G32 -1.24,0.0,0.00
  23501434.250
  20871519.750
  21107421.750
  21168264.250
  22246717.750
  21601220.750
  19981456.250
 22  5 11 16  0  8.0000000  0 05G01G07G14G28G30 -2.48,0.0,0.00
  21353897.750
  20371373.750
  20320385.750
  20845827.750
  19449899.250
 22  5 12  4  0  4.0000000  0 07G08G10G22G23G24G27G32 -3.72,0.0,0.00
  23273289.250
  20683997.750
  20479873.750
  21032845.750
  22160773.250
  21455650.750
  19778109.750
 22  5 12 16  0  4.0000000  0 07G01G06G07G13G17G19G30 -4.96,0.0,0.00
  22154859.750
  23374845.750
  21221576.250
  21849089.250
  19999933.750
  20748430.250
  20235286.250
 22  5 13  4  0  9.0000000  0 07G08G10G22G23G27G31G32 -6.200,0.0,0.00
  23570932.750
  21018211.750
  20754976.250
  21421208.750
  21838608.250
  23647502.250
  20101775.750
 22  5 13 16  0  5.0000000  0 06G01G07G13G17G19G30 -1.25,0.0,0.00
  19385072.250
  18501126.750
  19013305.750
  23183169.750
  23839370.750
  23443652.750
 22  5 14  4  0  4.0000000  0 06G08G10G22G27G31G32 -2.50,0.0,0.00
  18709218.250
  22183038.250
  21865977.750
  23056689.750
  18663435.750
  21260913.750
 22  5 14 16  0  5.0000000  0 08G01G07G13G14G15G17G28G30 -3.75,0.0,0.00
  23660283.750
  22822420.750
  23223872.250
  22472656.750
  19683255.750
  21419430.750
  22933231.250
  21704540.750
 22  5 15  4  0  9.0000000  0 09G08G10G18G21G22G23G27G31G32 -5.000,0.0,0.00
  23001767.250
  20506176.250
  21278002.750
  18386508.750
  20139220.250
  21018283.250
  21439163.250
  22826650.250
  19583222.250
 22  5 15 16  0  4.0000000  0 06G01G07G14G17G19G30 -1.25,0.0,0.00
  22074812.750
  21281452.750
  20822458.750
  19788502.750
  20263553.250
  20099015.250
 22  5 16  4  0  5.0000000  0 07G18G22G23G24G27G31G32 -2.50,0.0,0.00
  22637049.250
  21310625.750
  22288809.750
  23668717.250
  22718363.250
  23888397.250
  20802950.750
 22  5 16 16  0  5.0000000  0 07G01G13G14G17G19G28G30 -3.75,0.0,0.00
  19053019.250
  18484345.250
  23726083.250
  22715786.250
  23100621.250
  18143002.750
  23052172.750
 22  5 17  4  0  7.0000000  0 09G08G10G18G21G22G23G24G27G31 -5.00,0.0,0.00
  19552704.250
  23088410.250
  18154891.750
  20722611.250
  22636312.250
  23710150.750
  19168812.750
  18157175.250
  19102193.250
 22  5 17 16  0  5.0000000  0 07G01G07G14G17G19G28G30 -6.25,0.0,0.00
  20284194.750
  19573566.250
  18885158.250
  23898496.250
  18198062.250
  19272726.250
  18265731.250
 22  5 18  4  0  4.0000000  0 06G10G18G23G24G31G32 -7.50,0.0,0.00
  20532179.750
  21741641.250
  21208035.750
  22740147.750
  22387093.250
  19633559.250
 22  5 18 16  0  4.0000000  0 08G01G06G13G14G17G19G28G30 -8.75,0.0,0.00
  21065109.750
  20889271.750
  20363728.750
  19584176.750
  18633282.250
  18840242.750
  19945477.250
  19024119.250
 22  5 19  4  0  6.0000000  0 09G10G18G21G22G23G24G27G31G32 -10.00,0.0,0.00
  18537469.750
  19901272.750
  21922104.250
  18018314.250
  19269272.250
  20884605.250
  19750278.750
  20235027.250
  23651764.750
 22  5 19 16  0  4.0000000  0 07G13G14G15G17G19G28G30 -11.25,0.0,0.00
  22952506.750
  22152035.250
  19241725.250
  21236644.250
  21355577.750
  22485789.750
  21656516.750
 22  5 20  4  0  9.0000000  0 09G08G10G18G21G22G23G24G27G31 -12.50,0.0,0.00
  18486295.750
  22035778.250
  23559032.250
  19299477.750
  21489293.250
  22824290.250
  18531175.250
  23329559.250
  23575073.750
 22  5 20 16  0  8.0000000  0 07G01G07G14G17G19G28G30 -13.74,0.0,0.00
  22297748.750
  21697037.250
  20634011.250
  19758176.250
  19788584.250
  20938409.750
  20209074.750
 22  5 21  4  0  6.0000000  0 09G10G18G21G22G23G24G27G31G32 -14.99,0.0,0.00
  21850437.750
  23524944.250
  18992120.250
  21281390.250
  22694713.250
  18489916.250
  23226554.250
  23235877.250
  21014105.250
 22  5 21 16  0  4.0000000  0 07G06G07G13G14G17G19G30 -16.24,0.0,0.00
  18900524.250
  19274209.250
  18939678.750
  18082609.750
  23243878.250
  23189704.250
  23726148.750
 22  5 22  4  0  8.0000000  0 09G08G10G18G21G23G24G27G31G32 -17.49,0.0,0.00
  18962997.250
  22497768.750
  18333070.750
  19514726.250
  23399551.250
  19287433.250
  23960941.250
  23726591.750
  21689330.250
 22  5 22 16  0  5.0000000  0 07G06G07G13G14G17G19G30 -18.74,0.0,0.00
  20227550.750
  20895462.250
  20462340.750
  19570091.250
  18780280.250
  18640962.750
  19296199.750
 22  5 23  4  0  8.0000000  0 06G08G10G22G27G31G32 -19.99,0.0,0.00
  22213215.250
  19737646.750
  19134055.250
  21289754.250
  20811112.750
  18959984.750
 22  5 23 16  0  6.0000000  0 07G06G07G13G14G17G19G30 -21.24,0.0,0.00
  22262229.250
  23224815.750
  22694924.750
  21763500.250
  21020736.750
  20797661.250
  21572018.250
 22  5 24  4  0  7.0000000  0 08G08G10G21G22G24G27G31G32 -22.49,0.0,0.00
  20727734.250
  18234522.250
  21001602.250
  23614582.750
  21324189.250
  19877179.250
  19155218.250
  23485754.750
 22  5 24 16  0  4.0000000  0 07G06G07G13G17G19G28G30 -23.74,0.0,0.00
  18038620.250
  19292715.750
  18667077.250
  22994982.750
  22690625.750
  23864929.250
  23584293.250
 22  5 25  4  0  4.0000000  0 07G10G18G22G23G27G31G32 -24.99,0.0,0.00
  22925687.750
  19232001.750
  22300696.250
  18004241.250
  18663923.250
  23695989.750
  22216137.750
 22  5 25 16  0  9.0000000  0 05G14G17G19G28G30 -26.240,0.0,0.00
  20879405.250
  20236276.750
  19849902.750
  21018280.750
  20864341.250
 22  5 26  4  0  4.0000000  0 08G08G10G21G22G23G27G31G32 -1.35,0.0,0.00
  20956398.750
  18414529.250
  20923574.750
  23778274.250
  19554386.250
  20252666.750
  19017504.250
  23742517.750
 22  5 26 16  0  7.0000000  0 09G01G06G07G11G13G14G19G28G30 -2.70,0.0,0.00
  22610669.250
  20301960.750
  22175306.750
  23534401.250
  21357861.250
  20282430.750
  19224754.250
  20380758.750
  20369382.250
 22  5 27  4  0  4.0000000  0 06G10G21G22G27G31G32 -4.05,0.0,0.00
  19885461.750
  22271958.250
  19249505.250
  21818491.250
  20338916.750
  19257166.750
 22  5 27 16  0 11.0000000  0 09G02G06G07G11G13G15G17G19G30 -5.400,0.0,0.00
  21025621.750
  18088180.750
  20256543.750
  21275908.750
  19347710.750
  21326753.250
  23683620.250
  23133975.250
  18404656.750
 22  5 28  4  0  4.0000000  0 06G10G21G22G23G27G32 -1.15,0.0,0.00
  21773474.250
  18039526.250
  21135892.750
  23033660.750
  23803772.250
  21187057.750
 22  5 28 16  0  4.0000000  0 08G02G06G13G14G17G19G28G30 -2.30,0.0,0.00
  21767498.250
  18874146.250
  20333670.250
  19151589.250
  18673307.750
  18049739.250
  19169720.250
  19434623.750
 22  5 29  4  0  8.0000000  0 06G10G22G23G27G31G32 -3.45,0.0,0.00
  22223510.750
  21586346.750
  23544608.750
  18354848.250
  22377263.750
  21680007.750
 22  5 29 16  0  5.0000000  0 07G02G13G14G15G17G19G28 -4.59,0.0,0.00
  20689417.750
  19504843.250
  18265817.750
  21407138.750
  23838078.750
  23142094.750
  18241658.250
 22  5 30  4  0  4.0000000  0 08G08G10G21G22G23G27G31G32 -5.74,0.0,0.00
  23442837.250
  20770930.250
  22790455.250
  20135829.750
  22151039.750
  22991377.250
  20782735.250
  20269767.250
 22  5 30 16  0  4.0000000  0 09G06G07G11G13G14G17G19G28G30 -6.89,0.0,0.00
  19996349.250
  23020670.750
  23023134.250
  21855338.750
  20558239.250
  20189079.250
  19423474.250
  20490571.750
  21046723.250
 22  5 31  4  0  9.0000000  0 08G08G10G21G22G23G27G31G32 -8.040,0.0,0.00
  18189821.750
  21475013.250
  23371827.250
  20843546.750
  22916528.250
  23791363.250
  21341499.250
  21018293.750
 22  5 31 16  0  4.0000000  0 06G06G13G14G17G19G30 -1.49,0.0,0.00
  21569024.250
  23631446.250
  22272635.250
  21959437.250
  21124229.750
  22871041.750
 22  6  1  4  0  4.0000000  0 06G08G10G22G27G31G32 -2.97,0.0,0.00
  21284425.750
  18533720.750
  23902899.750
  20943855.750
  18258349.250
  18121300.250
 22  6  1 16  0  6.0000000  0 09G02G06G07G11G13G19G24G28G30 -4.46,0.0,0.00
  20080068.250
  23397369.250
  20993258.250
  20294300.750
  19659679.250
  23075683.750
  20436178.750
  18077786.250
  18947724.250
 22  6  2  4  0  8.0000000  0 09G01G08G10G21G22G23G27G31G32 -5.95,0.0,0.00
  19251183.750
  18926622.750
  22130145.750
  23786201.750
  21509525.750
  23693355.750
  18636299.250
  21714124.250
  21762509.750
 22  6  2 16  0  7.0000000  0 01G30 -7.44,0.0,0.00
  21913133.750