     2.00           OBSERVATION DATA    G(GPS)              RINEX VERSION / TYPE
goGPS-java                              14-Jun-22 19:17:45  PGM / RUN BY / DATE
                                                            MARKER NAME
                                                            MARKER NUMBER
                    Lotek Wireless Inc.                     OBSERVER / AGENCY
7                                                           REC # / TYPE / VERS
                                                            ANT # / TYPE
 -1701871.0000 -5580152.0000  2569378.0000                  APPROX POSITION XYZ
        0.0000        0.0000        0.0000                  ANTENNA: DELTA H / E / N
     2     0                                                WAVELENGTH FACT L1/2
     1    C1                                                # / TYPES OF OBSERV
  2022     6     9    21    52    4.0000000     UTC         TIME OF FIRST OBS
                                                            END OF HEADER
 22  6 10 13  0  4.0000000  0 06G01G08G13G21G28G30 6.74,0.0,0.00
  21768379.750
  23889846.750
  22349851.750
  22991179.250
  21442729.250
  19911755.750
 22  6 12 12  0 10.0000000  0 09G07G08G09G13G14G17G21G28G30 -64.600,0.0,0.00
  21025224.750
  22875600.750
  22407799.250
  19082778.750
  21905341.750
  22418424.750
  23691385.750
  22937536.250
  21789350.750
 22  6 12 12 20  4.0000000  0 07G01G07G09G14G17G28G30 -0.05,0.0,0.00
  20241810.750
  23789523.750
  20103131.250
  18672877.250
  18647592.750
  19597960.750
  18289037.250
 22  6 12 12 40  4.0000000  0 07G07G14G17G19G21G28G30 -0.10,0.0,0.00
  20019282.750
  20852155.750
  20384567.250
  22697661.750
  23013096.750
  21684991.250
  20223275.250
 22  6 12 13  0  5.0000000  0 07G07G14G17G19G21G28G30 -0.14,0.0,0.00
  22113161.250
  22821893.250
  22014608.750
  23980095.750
  19321123.250
  23569003.250
  21995524.250
 22  6 12 13 20  4.0000000  0 08G07G13G14G17G19G21G28G30 -0.19,0.0,0.00
  18281711.250
  19854188.250
  18763690.250
  23737322.250
  19295185.250
  21700613.250
  19426597.750
  23818064.250
 22  6 12 13 40  4.0000000  0 08G06G07G13G14G17G19G28G30 -0.24,0.0,0.00
  23908844.250
  20886946.250
  21866801.750
  21024972.250
  19919380.750
  21017076.250
  21598115.750
  20078047.250
 22  6 12 14  0  4.0000000  0 07G01G07G13G14G17G19G30 -0.29,0.0,0.00
  22972786.250
  22129639.750
  22546529.750
  21805681.250
  20741547.750
  21364318.250
  20980336.250
 22  6 12 14 20  4.0000000  0 08G01G06G13G14G17G19G28G30 -0.33,0.0,0.00
  23956194.250
  23672804.250
  23206969.750
  22424492.750
  21506700.750
  21661615.250
  22769948.750
  21851842.750
 22  6 12 14 40  4.0000000  0 07G06G07G13G14G17G19G30 -0.38,0.0,0.00
  20641445.750
  21735642.250
  21142647.750
  20196915.250
  19500430.250
  19217987.250
  19998034.250
 22  6 12 15  0  4.0000000  0 08G06G07G11G14G17G19G28G30 -0.43,0.0,0.00
  19286698.250
  21829452.750
  22337220.750
  19597848.750
  19161554.750
  18490438.750
  19601389.250
  19870483.250
 22  6 12 15 20  4.0000000  0 09G02G06G11G13G14G15G17G19G28 -0.48,0.0,0.00
  19940857.750
  23341225.250
  20105485.750
  19830252.250
  18340195.750
  21571773.250
  18164859.250
  23161085.750
  18116939.750
 22  6 12 15 40  4.0000000  0 09G02G06G11G13G14G17G19G24G28 -0.53,0.0,0.00
  20975790.750
  18731667.250
  21084510.750
  22099932.750
  20320816.250
  20370813.750
  19107610.750
  21481961.250
  19832231.250
 22  6 12 16  0  5.0000000  0 09G02G06G11G13G14G17G19G24G28 -0.57,0.0,0.00
  19708179.250
  23887389.250
  19731833.250
  21992361.750
  19976923.250
  20185272.750
  18722420.750
  20355590.250
  19188197.250
 22  6 12 16 20  4.0000000  0 09G02G06G11G12G13G17G19G24G28 -0.62,0.0,0.00
  22734684.250
  21403382.250
  22649607.750
  19316171.250
  20045222.250
  18165919.250
  22558519.750
  23541598.750
  22771585.750
 22  6 12 16 40  4.0000000  0 08G02G06G11G12G17G19G24G28 -0.67,0.0,0.00
  21379613.250
  20569838.750
  21170346.750
  23682098.750
  23599264.750
  21906754.750
  22362010.750
  21907064.750
 22  6 12 17  0  4.0000000  0 09G02G06G11G14G17G19G20G24G28 -0.72,0.0,0.00
  20877081.750
  20599256.750
  20539211.750
  23627447.750
  23717850.250
  21978392.750
  22925592.750
  22047434.250
  21834506.750
 22  6 12 17 20  4.0000000  0 08G02G06G11G12G17G19G20G24 -0.76,0.0,0.00
  23270042.250
  23510392.750
  22811269.750
  18602486.250
  20566660.750
  18813401.250
  18749297.250
  18640718.750
 22  6 12 17 40  4.0000000  0 09G02G06G11G12G17G19G20G24G28 -0.81,0.0,0.00
  22367139.250
  23092211.250
  21806646.750
  23056375.250
  19962109.750
  18219560.750
  23192372.250
  23932892.750
  18060908.750
 22  6 12 18  0  4.0000000  0 09G02G05G06G11G12G17G19G20G28 -0.86,0.0,0.00
  19124643.750
  21244279.250
  20287643.250
  18490800.750
  19134649.750
  22887698.250
  21172780.250
  19276692.250
  21150571.750
 22  6 12 18 20  4.0000000  0 08G02G05G06G11G12G19G20G24 -0.91,0.0,0.00
  19550135.250
  20638297.750
  21097583.250
  18877166.250
  18895534.250
  21717193.250
  19060449.250
  21498275.250
 22  6 12 18 40  4.0000000  0 08G02G05G11G12G19G20G25G28 -0.96,0.0,0.00
  19139864.750
  19194156.250
  18464280.250
  23885882.750
  21377594.250
  18090072.250
  20096410.750
  21854187.750
 22  6 12 19  0  6.0000000  0 07G05G12G19G20G24G25G29 -1.00,0.0,0.00
  23887898.750
  23080922.750
  21106621.250
  23320133.750
  21071312.750
  18781525.250
  21370330.750
 22  6 12 19 20  4.0000000  0 06G02G05G11G12G20G25 -1.05,0.0,0.00
  18031681.750
  22250064.750
  23450448.250
  21976108.750
  22248075.250
  23107466.250
 22  6 12 19 40  4.0000000  0 08G02G05G11G12G13G15G20G25 -1.10,0.0,0.00
  23248703.750
  20774206.250
  22764811.250
  21047201.250
  19333754.750
  19723646.250
  21335715.250
  21581611.750
 22  6 12 20  0  4.0000000  0 09G02G05G11G12G13G15G18G20G25 -1.15,0.0,0.00
  21514157.750
  18532718.750
  21145603.250
  19339254.750
  22718796.250
  22967696.250
  22321383.250
  19620486.750
  19277003.750
 22  6 12 20 20  4.0000000  0 08G02G05G11G12G15G20G25G29 -1.20,0.0,0.00
  21061158.750
  23769970.750
  20824233.250
  19076091.250
  21466039.250
  19322572.750
  18449189.750
  19977083.250
 22  6 12 20 40  4.0000000  0 07G02G05G11G12G15G20G29 -1.24,0.0,0.00
  22373971.250
  18975875.750
  22279085.250
  20715141.750
  21731797.250
  20900221.250
  20421208.250
 22  6 12 21  0  4.0000000  0 09G02G05G11G13G15G18G20G25G29 -1.29,0.0,0.00
  19875948.250
  22534569.250
  19927782.250
  18632558.750
  18221205.250
  18614528.750
  18745328.750
  23082237.250
  23107993.750
 22  6 12 21 20  4.0000000  0 09G02G05G11G12G15G18G20G25G29 -1.34,0.0,0.00
  22311931.250
  19173158.750
  22509687.750
  21563098.750
  19711077.750
  20456106.750
  21568989.250
  19672506.750
  18815220.750
 22  6 12 21 40  5.0000000  0 09G02G05G12G13G15G18G23G25G29 -1.39,0.0,0.00
  23591289.250
  20747608.750
  23339727.250
  21201248.250
  20140050.750
  21160357.750
  21306782.750
  21209791.750
  19458739.250
 22  6 12 22  0  4.0000000  0 06G05G13G15G18G25G29 -1.43,0.0,0.00
  19274337.250
  19021113.750
  23588274.750
  18767720.250
  19706542.250
  23113163.250
 22  6 12 22 20  4.0000000  0 07G02G05G13G15G23G25G29 -1.48,0.0,0.00
  22607936.250
  20470803.250
  19648200.250
  23839398.250
  18851470.250
  20872673.750
  23555344.250
 22  6 12 22 40  5.0000000  0 06G05G13G15G18G23G29 -1.53,0.0,0.00
  18024400.250
  22793357.750
  20623334.750
  21628074.750
  21453362.250
  20510249.250
 22  6 12 23  0  4.0000000  0 07G10G13G15G18G23G24G29 -1.58,0.0,0.00
  23813889.250
  23853997.750
  21348664.750
  22006842.750
  21912662.750
  19109235.750
  21383669.750
 22  6 12 23 20  5.0000000  0 06G10G15G23G24G26G29 -1.63,0.0,0.00
  22008808.750
  20176999.250
  20379353.750
  23159731.750
  23830129.750
  20337834.750
 22  6 12 23 40  5.0000000  0 08G10G15G16G18G23G24G29G32 -1.67,0.0,0.00
  21422875.250
  20318586.750
  23934156.250
  19842793.750
  20067360.750
  22383265.250
  20584498.250
  22913002.250
 22  6 13  0  0  6.0000000  0 09G10G16G18G22G23G26G27G29G32 -1.72,0.0,0.00
  20094449.750
  23009381.750
  18613219.750
  22769489.750
  19009477.750
  23014142.750
  21697782.250
  20148444.250
  21027862.250
 22  6 13  0 20  4.0000000  0 06G15G18G22G24G29G32 -1.77,0.0,0.00
  21123844.750
  19212865.250
  22607958.750
  21183225.750
  21548102.250
  20958995.750
 22  6 13  0 40  6.0000000  0 07G10G22G23G24G27G29G32 -1.82,0.0,0.00
  21734905.250
  23154468.750
  21170257.250
  22299064.250
  22573958.750
  23672666.750
  21648834.750
 22  6 13  1  0  5.0000000  0 07G10G18G22G23G24G27G32 -1.87,0.0,0.00
  22772692.250
  21906269.750
  23611893.250
  22459608.250
  23407383.750
  23400994.750
  22293752.750
 22  6 13  1 20  4.0000000  0 06G10G18G23G24G27G32 -1.91,0.0,0.00
  18309624.750
  23835113.250
  18247270.250
  19165628.750
  18874066.750
  23545690.250
 22  6 13  1 40  8.0000000  0 06G10G18G23G24G27G32 -1.96,0.0,0.00
  19924427.750
  19969199.750
  20117744.250
  21161977.750
  20579486.250
  19007033.750
 22  6 13  2  0  4.0000000  0 08G08G10G18G22G23G24G27G32 -2.01,0.0,0.00
  23529095.250
  20965996.750
  21634256.750
  20605187.250
  21421724.750
  22731248.250
  21855824.250
  20014103.750
 22  6 13  2 20  4.0000000  0 07G08G10G21G22G23G27G32 -2.06,0.0,0.00
  19513679.250
  23022847.750
  20398512.250
  22479727.750
  23753620.250
  18271358.250
  22143069.250
 22  6 13  2 40  4.0000000  0 07G10G18G21G22G27G31G32 -2.10,0.0,0.00
  18860872.250
  21029360.250
  21608541.750
  18231955.250
  20541769.250
  19743484.250
  18135400.750
 22  6 13  3  0  5.0000000  0 07G08G10G21G22G23G27G32 -2.15,0.0,0.00
  23186928.750
  20525142.750
  22655075.250
  19882333.750
  21842756.750
  22678404.750
  20003386.750
 22  6 13  3 20 10.0000000  0 07G08G10G18G21G22G27G31 -2.200,0.0,0.00
  18449555.250
  21594482.250
  19370970.750
  23121507.750
  20977177.750
  18209532.250
  21027053.750
 22  6 13  3 40  5.0000000  0 06G01G08G10G21G22G32 -2.25,0.0,0.00
  20189016.250
  21200286.750
  18151487.250
  19104511.250
  23558048.750
  18036276.250
 22  6 13  4  0  4.0000000  0 07G01G10G21G22G23G31G32 -2.31,0.0,0.00
  21391568.750
  20209516.250
  20617010.750
  19615098.250
  22423190.750
  18467366.750
  20226794.750
 22  6 13  4 20  5.0000000  0 07G01G10G21G22G23G31G32 -2.36,0.0,0.00
  21505690.250
  21156562.750
  21051238.250
  20492238.750
  23633935.250
  18953128.750
  21221908.750
 22  6 13  4 40  5.0000000  0 07G01G03G10G21G22G31G32 -2.42,0.0,0.00
  23907211.750
  20340116.750
  18350793.750
  23763099.250
  23524499.750
  21766442.750
  18362943.250
 22  6 13  5  0  4.0000000  0 07G01G10G16G21G25G26G32 -2.47,0.0,0.00
  19842209.750
  21007982.750
  22565246.250
  19978894.750
  22093881.250
  20290470.750
  20860358.750
 22  6 13  5 20  6.0000000  0 08G01G03G04G16G21G22G31G32 -2.53,0.0,0.00
  22249817.250
  23536692.250
  18601683.750
  18280620.750
  22620636.750
  22627491.250
  20941081.750
  23659417.750
 22  6 13  5 40  4.0000000  0 06G01G10G16G21G26G32 -2.58,0.0,0.00
  23650072.250
  20041080.250
  18803020.750
  18197542.750
  22983436.750
  19287417.250
 22  6 13  6  0  6.0000000  0 09G01G03G04G16G21G22G26G31G32 -2.64,0.0,0.00
  20767575.250
  20345103.250
  21943717.250
  20905185.750
  21414931.750
  21226940.250
  19483826.250
  20135058.250
  22480619.750
 22  6 13  6 20  8.0000000  0 05G16G22G26G31G32 -2.69,0.0,0.00
  21753151.250
  22990957.250
  20820855.750
  22302054.250
  18377706.250
 22  6 13  6 40  5.0000000  0 07G04G16G21G22G26G31G32 -2.75,0.0,0.00
  18466976.250
  22975208.750
  19614526.250
  19039687.750
  22600018.750
  18768135.750
  20562625.750
 22  6 13  7  0 10.0000000  0 08G03G04G16G22G26G27G31G32 -2.800,0.0,0.00
  20858847.250
  22533662.250
  21026322.250
  23797046.750
  21248023.250
  19305740.250
  23923881.250
  19474088.250
 22  6 13  7 20  8.0000000  0 08G01G04G09G16G22G26G27G31 -2.83,0.0,0.00
  22986870.250
  20570785.750
  22753828.250
  19217241.250
  22559295.250
  20029406.250
  23228278.750
  23028707.750
 22  6 13  7 40  7.0000000  0 07G03G04G09G16G22G26G27 -2.86,0.0,0.00
  22491862.750
  23446063.750
  19439822.250
  22427416.750
  20201797.750
  23787635.250
  19950978.250
 22  6 13  8  0  9.0000000  0 07G03G07G08G16G22G26G27 -2.89,0.0,0.00
  18841678.750
  22159073.250
  22492946.250
  18692307.250
  22751369.750
  20526485.750
  21520967.750
 22  6 13  8 20  5.0000000  0 07G03G04G07G08G09G16G27 -2.91,0.0,0.00
  19989986.750
  19656000.750
  22581226.250
  22609597.750
  21131714.750
  19783130.750
  21775782.750
 22  6 13  8 40  5.0000000  0 06G03G04G07G09G16G26 -2.94,0.0,0.00
  23279446.750
  22178142.250
  19038079.250
  23325262.750
  23039421.750
  19522405.250
 22  6 13  9  0  5.0000000  0 06G04G07G08G09G16G27 -2.97,0.0,0.00
  18272881.750
  20980816.250
  20317307.750
  19043933.750
  19904031.250
  20034463.750
 22  6 13  9 20 12.0000000  0 05G04G08G09G16G27 -3.000,0.0,0.00
  19551168.250
  21045822.250
  19902645.250
  21933696.750
  21172357.750
 22  6 13  9 40  5.0000000  0 07G03G04G07G08G09G16G27 -3.10,0.0,0.00
  19199967.250
  21970584.750
  18032069.750
  22889151.750
  21878040.250
  19025037.250
  23488076.250
 22  6 13 10  0 11.0000000  0 07G03G04G07G08G09G14G27 -3.200,0.0,0.00
  19285746.750
  21579391.250
  23090628.750
  21909859.250
  21026556.750
  24691836.250
  23027802.250
 22  6 13 10 20  5.0000000  0 06G03G04G07G09G14G30 -0.85,0.0,0.00
  18658954.250
  20659345.250
  21477714.250
  19659482.750
  22773025.750
  23077488.250
 22  6 13 10 40  5.0000000  0 06G04G07G08G09G27G30 -1.70,0.0,0.00
  23278634.250
  23260954.250
  22530871.750
  21860366.250
  18681201.750
  18723654.250
 22  6 13 11  0  5.0000000  0 06G04G07G08G09G27G30 -2.55,0.0,0.00
  19048989.750
  18081743.750
  23849016.250
  23258473.250
  20451189.250
  19387142.250
 22  6 13 11 20 11.0000000  0 09G04G07G08G09G14G17G21G28G30 -3.400,0.0,0.00
  22589170.750
  20591139.250
  21026873.250
  20497853.250
  21474813.250
  22919996.250
  23143837.250
  22708855.750
  21723586.750
 22  6 13 11 40  5.0000000  0 06G07G09G14G21G28G30 -0.07,0.0,0.00
  22427275.250
  23157330.750
  23301025.250
  19028457.750
  18421099.750
  23362009.750
 22  6 13 12  0  4.0000000  0 09G04G07G08G09G14G17G21G28G30 -0.15,0.0,0.00
  22714807.750
  18626159.250
  20689072.250
  20236338.250
  19508601.250
  19884085.250
  21320478.750
  20514509.750
  19330995.750