     2.00           OBSERVATION DATA    G(GPS)              RINEX VERSION / TYPE
goGPS-java                              14-Jun-22 19:27:17  PGM / RUN BY / DATE
                                                            MARKER NAME
                                                            MARKER NUMBER
                    Lotek Wireless Inc.                     OBSERVER / AGENCY
7                                                           REC # / TYPE / VERS
                                                            ANT # / TYPE
 -1701871.0000 -5580152.0000  2569378.0000                  APPROX POSITION XYZ
        0.0000        0.0000        0.0000                  ANTENNA: DELTA H / E / N
     2     0                                                WAVELENGTH FACT L1/2
     1    C1                                                # / TYPES OF OBSERV
  2022     5     6     2    31   59.0000000     UTC         TIME OF FIRST OBS
                                                            END OF HEADER
 22  5  6 13  0  8.0000000  0 08G04G07G08G09G14G21G27G30 -1.12,0.0,0.00
  20112580.250
  20827477.750
  19870767.250
  19075999.250
  22074821.750
  23453380.750
  21577951.750
  22275320.250
 22  5  7 16  0 10.0000000  0 07G01G06G07G13G14G17G30 -4.000,0.0,0.00
  22991081.750
  19177151.250
  21786374.750
  22999937.250
  22071151.750
  21025552.750
  21134206.750
 22  5  8  4  0  6.0000000  0 08G08G10G18G22G23G24G27G32 -3.70,0.0,0.00
  21503474.750
  18716390.750
  18596172.250
  18793211.250
  18854961.250
  19817032.250
  19354977.750
  23900225.750
 22  5  8 16  0 11.0000000  0 04G06G17G19G28 -7.400,0.0,0.00
  21024600.250
  23012745.750
  18118470.750
  18663995.250
 22  5  9  4  0  4.0000000  0 06G10G18G22G27G31G32 -1.50,0.0,0.00
  18400052.750
  18393742.250
  18398849.250
  19062843.250
  21628425.750
  23552094.250
 22  5  9 16  0  4.0000000  0 06G01G07G17G19G21G30 -3.01,0.0,0.00
  18419622.750
  23324522.750
  22378606.750
  23393930.250
  21083185.250
  22538880.250
 22  5 10  4  0  4.0000000  0 07G08G10G18G23G24G27G32 -4.51,0.0,0.00
  21763171.750
  19085490.750
  19195967.250
  19328422.750
  20361703.250
  19778297.750
  18216021.250
 22  5 10 16  0  5.0000000  0 07G06G07G14G17G19G28G30 -6.01,0.0,0.00
  20026235.750
  23354179.250
  23396867.250
  22315937.250
  23243731.250
  23943107.250
  22501504.750
 22  5 11  4  0  4.0000000  0 06G10G18G22G27G31G32 -7.51,0.0,0.00
  22926082.750
  23157650.250
  22786128.750
  23654809.750
  19866262.750
  22036021.250
 22  5 11 16  0  4.0000000  0 07G07G13G14G17G19G28G30 -9.02,0.0,0.00
  20924980.250
  21669801.750
  20878250.250
  19796381.750
  20636466.750
  21404674.250
  20006416.750
 22  5 12  4  0 10.0000000  0 07G10G18G22G23G27G31G32 -10.520,0.0,0.00
  21221804.750
  21583494.250
  21018019.250
  21571174.250
  21992970.250
  18010511.250
  20316055.250
 22  5 12 16  0  4.0000000  0 07G06G13G14G17G19G28G30 -1.80,0.0,0.00
  23601945.750
  22078251.750
  21306487.250
  20229159.750
  20976678.250
  21811416.750
  20464594.250
 22  5 13  4  0 11.0000000  0 03G18G22G31 -3.600,0.0,0.00
  21796542.250
  21034851.750
  23926133.250
 22  5 13 16  0  4.0000000  0 08G06G07G13G14G17G19G28G30 -5.28,0.0,0.00
  18888729.250
  22996050.250
  23511201.750
  22752368.750
  21684502.250
  22342630.750
  23235913.250
  21944181.750
 22  5 14  4  0  6.0000000  0 09G08G10G18G21G22G23G24G27G32 -6.95,0.0,0.00
  22383529.750
  19862104.750
  20491427.750
  23863086.750
  19545446.250
  20318965.250
  21562753.750
  20734769.750
  18939941.250
 22  5 14 16  0  6.0000000  0 09G01G06G07G14G15G17G21G28G30 -8.63,0.0,0.00
  19984977.250
  20765707.250
  19146293.250
  18798466.750
  22005746.250
  23740842.750
  23046094.250
  19259512.750
  18029501.250
 22  5 15  4  0  4.0000000  0 06G10G18G22G27G31G32 -10.31,0.0,0.00
  18259525.750
  19026209.750
  23890060.750
  19189605.250
  20586438.750
  23332146.750
 22  5 15 16  0  4.0000000  0 07G01G06G13G14G15G17G28 -11.98,0.0,0.00
  20735689.250
  21290704.250
  20236021.750
  19486134.750
  22660012.250
  18451412.250
  19924233.250
 22  5 16  4  0  7.0000000  0 08G10G18G22G23G24G27G31G32 -13.66,0.0,0.00
  19685215.750
  20594996.750
  19274701.250
  20249862.250
  21627616.750
  20679206.250
  21855642.750
  18765602.250
 22  5 16 16  0  5.0000000  0 09G01G06G07G13G14G17G19G28G30 -15.33,0.0,0.00
  20805091.750
  21125873.250
  20053074.750
  20238445.750
  19484983.750
  18473616.750
  18862301.750
  19898448.750
  18809530.750
 22  5 17  4  0  8.0000000  0 06G10G21G22G27G31G32 -17.01,0.0,0.00
  19039602.750
  22675073.750
  18588624.250
  20101106.750
  21054503.750
  18127966.750
 22  5 17 16  0  4.0000000  0 08G07G13G14G15G17G19G28G30 -18.69,0.0,0.00
  22324669.250
  22406217.750
  21642579.250
  18767554.750
  20658609.750
  20958613.250
  22031588.250
  21019968.750
 22  5 18  4  0  7.0000000  0 08G08G10G21G22G23G24G27G32 -20.36,0.0,0.00
  22306602.750
  19855615.250
  23369081.250
  19368982.250
  20529366.250
  22058672.750
  20988541.250
  18956348.250
 22  5 18 16  0  4.0000000  0 07G06G13G14G17G19G28G30 -22.04,0.0,0.00
  21942051.750
  21407600.750
  20628754.250
  19676253.750
  19887753.250
  20991585.750
  20065243.250
 22  5 19  4  0  8.0000000  0 08G08G10G18G21G22G27G31G32 -23.72,0.0,0.00
  21311725.250
  18865633.250
  20222441.250
  22255748.750
  18347469.750
  20074680.250
  20569558.750
  23978930.750
 22  5 19 16  0  5.0000000  0 07G01G06G07G13G17G19G30 -25.39,0.0,0.00
  23951141.750
  23536648.750
  23313465.750
  23186440.750
  21469806.250
  21593165.250
  21887805.750
 22  5 20  4  0  7.0000000  0 07G10G18G21G23G24G27G31 -27.07,0.0,0.00
  18311373.750
  19824374.250
  21579108.750
  19096098.250
  20793394.250
  19599724.750
  19860431.750
 22  5 20 16  0  5.0000000  0 07G01G06G14G17G19G28G30 -28.75,0.0,0.00
  22731335.750
  22062274.250
  21074425.750
  20195876.750
  20232418.250
  21381028.750
  20644153.250
 22  5 21  4  0  4.0000000  0 06G08G10G22G23G27G32 -30.42,0.0,0.00
  23291367.250
  20840331.250
  20272614.250
  21680510.750
  22210406.250
  20002150.250
 22  5 21 16  0  5.0000000  0 07G06G13G14G17G19G28G30 -32.10,0.0,0.00
  23250944.250
  23278900.250
  22423568.250
  21586583.750
  21537472.250
  22700184.750
  22066521.250
 22  5 22  4  0  7.0000000  0 09G08G10G18G21G22G23G27G31G32 -33.77,0.0,0.00
  18271036.750
  21806687.750
  23627391.250
  18832104.750
  21219680.750
  22704631.250
  23263819.250
  23046846.250
  20996207.750
 22  5 22 16  0  5.0000000  0 08G01G06G07G14G17G19G28G30 -35.45,0.0,0.00
  18694730.250
  23502021.250
  18154123.750
  22833831.750
  22041109.750
  21907472.250
  23079106.250
  22554259.750
 22  5 23  4  0  4.0000000  0 06G08G18G22G23G27G31 -37.13,0.0,0.00
  18289346.250
  23785615.250
  21208895.250
  22765742.750
  23355604.250
  22898947.250
 22  5 23 16  0  5.0000000  0 08G01G06G13G14G15G17G19G28 -38.80,0.0,0.00
  21329195.250
  19876681.750
  20294584.750
  19366000.250
  22434732.750
  18619830.250
  18403025.750
  19578575.250
 22  5 24  4  0 10.0000000  0 09G10G18G21G23G24G25G27G31G32 -40.480,0.0,0.00
  21018175.750
  23153791.250
  23791979.250
  22031698.750
  18102563.750
  18723220.750
  22654427.750
  21948856.250
  20270969.250
 22  5 24 16  0  4.0000000  0 09G06G07G13G14G15G17G19G28G30 -1.88,0.0,0.00
  22024139.750
  23303374.250
  22672354.750
  21694446.750
  18772725.250
  21004585.250
  20693225.750
  21867388.750
  21595543.750
 22  5 25  4  0  7.0000000  0 08G10G18G21G22G23G24G31G32 -3.76,0.0,0.00
  21990976.250
  18314108.750
  18627478.750
  21364973.250
  23071726.250
  19253312.750
  22746885.750
  21284694.250
 22  5 25 16  0  9.0000000  0 09G02G06G07G11G14G17G19G28G30 -5.64,0.0,0.00
  21653447.250
  18636948.750
  20213584.750
  21909038.250
  18463485.250
  23820930.750
  23428288.250
  18599933.750
  18455704.250
 22  5 26  4  0  5.0000000  0 07G08G10G21G22G27G31G32 -7.52,0.0,0.00
  18194556.750
  21650736.750
  18165270.250
  21017876.750
  23485751.750
  22257703.750
  20981273.250
 22  5 26 16  0  5.0000000  0 07G01G06G07G14G17G28G30 -9.40,0.0,0.00
  18825633.750
  22522952.250
  18389131.250
  22497789.250
  21910394.250
  22597705.750
  22580788.250
 22  5 27  4  0  7.0000000  0 08G08G10G18G22G23G25G27G31 -11.28,0.0,0.00
  20987898.750
  18419945.750
  21058207.750
  23778945.750
  19618753.250
  21871145.750
  20350012.750
  18876805.250
 22  5 27 16  0  4.0000000  0 06G06G13G17G19G28G30 -13.16,0.0,0.00
  20841713.250
  22089725.250
  20429761.250
  19884826.750
  21025846.750
  21142402.250
 22  5 28  4  0  7.0000000  0 07G08G10G21G23G25G31G32 -15.04,0.0,0.00
  23784485.250
  21184910.750
  23451246.250
  22443047.250
  18558607.250
  21495243.750
  20596013.750
 22  5 28 16  0  4.0000000  0 06G02G06G11G17G19G28 -16.92,0.0,0.00
  23040938.250
  20144490.750
  23286617.250
  19932196.750
  19313262.750
  20434328.750
 22  5 29  4  0 10.0000000  0 08G08G10G22G23G25G27G31G32 -18.800,0.0,0.00
  23651103.250
  21018190.750
  20379959.250
  22336680.750
  18308073.250
  23139244.250
  21180566.250
  20471530.250
 22  5 29 16  0  5.0000000  0 08G06G07G13G14G17G19G28G30 -1.93,0.0,0.00
  19321132.750
  22065087.750
  20984592.750
  19744013.750
  19321519.250
  18625251.250
  19720117.750
  20129524.750
 22  5 30  4  0  4.0000000  0 06G08G18G22G23G27G31 -3.87,0.0,0.00
  23370488.250
  23827172.250
  20063944.250
  22081257.750
  22920074.750
  20711433.250
 22  5 30 16  0  4.0000000  0 08G02G06G11G13G14G17G19G30 -5.80,0.0,0.00
  22553234.750
  19758869.250
  22785751.250
  21619542.250
  20321167.250
  19952913.750
  19187421.750
  20809419.750
 22  5 31  4  0  5.0000000  0 06G08G10G21G22G27G32 -7.73,0.0,0.00
  20408518.750
  23694290.250
  19597847.750
  23062866.750
  20012710.250
  23237094.750
 22  5 31 16  0  4.0000000  0 06G06G14G17G19G28G30 -9.67,0.0,0.00
  19659917.750
  20358817.250
  20043829.250
  19210882.250
  20245940.250
  20953029.750
 22  6  1  4  0  4.0000000  0 07G08G10G21G22G27G31G32 -11.60,0.0,0.00
  18786531.250
  22034408.250
  23813484.250
  21406639.250
  18444816.750
  21765120.250
  21619498.250
 22  6  1 16  0  5.0000000  0 08G02G06G07G11G13G17G19G30 -13.53,0.0,0.00
  21946744.250
  19265419.250
  22843331.250
  22161082.250
  21516165.750
  19838344.250
  18940453.250
  20799583.750
 22  6  2  4  0  7.0000000  0 08G08G10G21G22G23G27G31G32 -15.47,0.0,0.00
  22224504.750
  19435557.250
  21095167.250
  18813357.750
  20996993.750
  21933359.750
  19027552.750
  19064549.750
 22  6  2 16  0  4.0000000  0 07G02G13G14G17G19G24G28 -17.40,0.0,0.00
  20213165.250
  20033252.250
  18555894.250
  18347746.250
  23383469.750
  20593018.750
  18348695.750
 22  6  3  4  0  8.0000000  0 08G08G10G21G22G23G25G27G31 -19.33,0.0,0.00
  22660876.250
  19830408.250
  21372544.750
  19214372.750
  21451892.750
  22690036.250
  22416856.750
  19287420.250
 22  6  3 16  0  4.0000000  0 07G02G11G13G15G17G19G28 -21.27,0.0,0.00
  21706444.250
  21897542.750
  21778019.250
  23493087.750
  20083789.250
  19063518.250
  19983606.250
 22  6  4  4  0  4.0000000  0 08G01G08G10G21G22G23G27G32 -23.20,0.0,0.00
  22815176.750
  22907303.250
  20035788.250
  21463743.250
  19426027.250
  21716059.750
  22706544.750
  19749570.750
 22  6  4 16  0  8.0000000  0 08G02G06G11G15G17G19G24G30 -25.13,0.0,0.00
  19098324.250
  22608064.750
  19275682.750
  21102981.250
  23716325.250
  22637450.750
  19523722.250
  18857230.750
 22  6  5  4  0  5.0000000  0 08G01G08G10G21G23G25G31G32 -27.07,0.0,0.00
  19168679.750
  19476975.750
  22559066.250
  23871586.750
  18303388.750
  19255675.750
  21757421.250
  22314371.750
 22  6  5 16  0  7.0000000  0 04G17G19G24G28 -29.00,0.0,0.00
  21797215.250
  20663176.750
  23386393.750
  21493876.750
 22  6  6  4  0  7.0000000  0 06G10G21G23G25G31G32 -30.93,0.0,0.00
  22899673.750
  18101322.750
  18703943.250
  19512001.750
  21971106.250
  22695285.750
 22  6  6 16  0  6.0000000  0 08G06G13G14G17G19G24G28G30 -32.87,0.0,0.00
  20576982.250
  23739259.750
  22026570.750
  22012606.750
  20825936.250
  23391855.750
  21609391.250
  23275761.750
 22  6  7  4  0  7.0000000  0 08G01G08G10G21G22G27G31G32 -34.80,0.0,0.00
  18018095.250
  18757372.750
  21756948.250
  22841667.750
  21165240.250
  18670424.250
  20705532.250
  21591047.250
 22  6  7 16  0  6.0000000  0 06G02G06G11G13G19G30 -36.73,0.0,0.00
  22291134.250
  20027305.750
  22420490.750
  23357254.250
  20381241.250
  22947558.750
 22  6  8  4  0  7.0000000  0 06G08G10G21G22G27G32 -38.67,0.0,0.00
  18941171.750
  21899369.250
  22874503.250
  21313591.750
  18884604.750
  21771197.250
 22  6  8 16  0 11.0000000  0 09G02G06G11G13G14G17G19G28G30 -40.600,0.0,0.00
  20068411.750
  23882057.250
  20179148.250
  21380768.750
  19558652.250
  19629101.750
  18342820.250
  19026464.750
  21027152.750
 22  6  9  4  0  8.0000000  0 07G01G10G22G23G25G31G32 -1.76,0.0,0.00
  23931071.250
  22048122.750
  21465606.750
  18037766.750
  18398853.750
  20741404.250
  21959291.750
 22  6  9 16  0  4.0000000  0 07G02G06G11G14G17G19G28 -3.53,0.0,0.00
  23062215.750
  20974643.750
  23151224.250
  22765851.250
  22878832.250
  21540942.750
  22166283.250
 22  6 10  4  0  6.0000000  0 08G01G08G21G22G26G27G31G32 -5.29,0.0,0.00
  20692615.250
  22099337.750
  19718412.250
  18399869.750
  21876000.250
  22100688.250
  23559248.250
  18923503.750
 22  6 10 16  0  4.0000000  0 07G02G06G11G17G19G24G28 -7.06,0.0,0.00
  19817525.750
  23811680.750
  19886007.750
  19854610.750
  18473505.750
  20404220.250
  19047026.250
 22  6 11  4  0  4.0000000  0 08G10G21G22G23G25G26G27G31 -8.82,0.0,0.00
  20674096.250
  21300637.250
  20089024.750
  22773765.750
  22861998.750
  23412918.250
  23847372.250
  19146986.250
 22  6 11 16  0  4.0000000  0 09G02G06G11G13G17G19G24G28G30 -10.59,0.0,0.00
  19188644.750
  23271218.250
  19235711.250
  21234843.250
  19441745.750
  18019714.250
  19804556.750
  18540981.750
  21061642.750
 22  6 12  4  0  6.0000000  0 09G01G08G10G21G22G26G27G31G32 -12.35,0.0,0.00
  20842712.750
  22661864.750
  19482027.750
  19999391.250
  18892488.250
  22056900.250
  22706133.750
  23843709.750
  19474910.750
 22  6 12 16  0  8.0000000  0 09G02G06G11G13G17G19G20G28G30 -14.12,0.0,0.00
  20812800.750
  18991950.250
  20837310.250
  23087006.750
  21280636.750
  19819395.250
  23723713.750
  20287402.750
  22975122.750
 22  6 13  4  0  9.0000000  0 09G10G21G22G23G25G26G27G31G32 -15.880,0.0,0.00
  22756837.750
  23166425.750
  22160992.250
  18973216.250
  18791043.250
  19164521.750
  20029669.750
  21018233.250
  22771974.250
 22  6 13 16  0  5.0000000  0 09G02G06G11G13G14G19G20G28G30 -2.74,0.0,0.00
  23661867.250
  21939013.250
  23662344.750
  20169996.750
  18116954.250
  22846762.750
  20565841.750
  23259930.250
  20123422.250
 22  6 14  4  0  7.0000000  0 09G01G10G21G22G23G26G27G31G32 -5.48,0.0,0.00
  20575259.250
  19569163.750
  19868498.750
  18964569.250
  21838079.750
  21787847.250
  22877237.750
  23721347.250
  19604437.750
 22  6 14 16  0  5.0000000  0 08G02G06G11G13G14G19G20G28 -8.21,0.0,0.00
  18561890.750
  22930346.250
  18538628.250
  21278653.250
  19192643.250
  23909150.250
  21443575.750
  18274797.250