     2.00           OBSERVATION DATA    G(GPS)              RINEX VERSION / TYPE
goGPS-java                              28-Jun-18 00:32:03  PGM / RUN BY / DATE
                                                            MARKER NAME
                                                            MARKER NUMBER
                    Lotek Wireless Inc.                     OBSERVER / AGENCY
7                                                           REC # / TYPE / VERS
                                                            ANT # / TYPE
        0.0000        0.0000        0.0000                  APPROX POSITION XYZ
        0.0000        0.0000        0.0000                  ANTENNA: DELTA H / E / N
     2     0                                                WAVELENGTH FACT L1/2
     1    C1                                                # / TYPES OF OBSERV
  2018     4    25    21    43   39.0000000     UTC         TIME OF FIRST OBS
                                                            END OF HEADER
 18  4 26 12  0  5.0000000  0 07G07G08G09G11G23G28G30 21603.81,0.0
  20959512.250
  20594309.250
  19527555.250
  23009655.750
  21145826.750
  21374117.750
  22045575.250
 18  4 26 21  0 11.0000000  0 07G02G05G12G20G21G25G29 +21603.000,0.0
  21027868.750
  18714775.750
  18921570.250
  22183174.750
  23427042.250
  19622269.750
  21093086.250
 18  4 27  6  0  4.0000000  0 09G01G04G10G18G22G25G26G31G32 21602.19,0.0
  22826598.750
  23154701.750
  23109737.250
  21992366.750
  22865360.750
  18804819.250
  23373793.250
  20773453.750
  23455425.250
 18  4 27 15  0  4.0000000  0 09G01G06G07G13G15G17G19G28G30 21601.38,0.0
  23566094.250
  18323941.750
  22594639.250
  23162926.750
  19661281.250
  21508474.250
  22127402.250
  22637554.750
  21273799.750
 18  4 28  0  0  6.0000000  0 06G10G13G15G20G21G29 21600.58,0.0
  23751089.250
  23667715.250
  21429319.250
  21187259.750
  23013751.750
  21023538.250
 18  4 28  9  0  4.0000000  0 09G03G04G07G14G16G22G23G26G27 21599.77,0.0
  19794439.750
  22795298.750
  23315725.250
  23569288.750
  19680442.250
  20719987.750
  20510173.750
  21776945.250
  22591775.750
 18  4 28 18  0  9.0000000  0 06G02G05G06G17G24G28 +21598.960,0.0
  21018372.750
  24506430.250
  20850926.250
  23482826.750
  22383926.250
  23764048.750
 18  4 29  3  0 11.0000000  0 04G10G20G21G32 +21597.400,0.0
  21630917.250
  23350281.250
  21742984.250
  21025288.250
 18  4 29 12  0  4.0000000  0 07G07G08G09G23G27G28G30 21596.53,0.0
  19441485.250
  19393418.750
  18304867.250
  20218963.250
  21970696.750
  19876860.750
  20448791.750
 18  4 29 21  0  5.0000000  0 08G02G05G12G15G20G21G25G29 21595.66,0.0
  21923218.250
  19537938.250
  19870343.250
  23427320.750
  22551197.250
  23900688.250
  20210052.750
  21447983.750
 18  4 30  6  0  5.0000000  0 09G01G04G10G11G16G18G22G26G31 21594.79,0.0
  22912920.750
  23003499.250
  23622055.250
  18141356.750
  18853977.250
  22320345.250
  22712101.750
  23188778.250
  21163354.250
 18  4 30 15  0  4.0000000  0 08G01G07G11G13G17G19G28G30 21593.92,0.0
  21561280.250
  20726821.750
  22179037.750
  20933254.250
  19272497.750
  19654769.750
  20437897.750
  19207433.750
 18  5  1  0  0  6.0000000  0 07G04G10G15G20G21G26G29 21593.05,0.0
  18272642.750
  23370366.250
  21444959.250
  21127656.750
  22686439.250
  18795894.750
  21128088.750
 18  5  1  9  0  4.0000000  0 08G03G07G08G09G16G22G23G27 21592.18,0.0
  22611974.250
  19717508.750
  19977350.750
  18787488.250
  22504217.250
  23690051.250
  22881391.250
  18913058.750
 18  5  1 18  0  5.0000000  0 06G02G05G06G12G17G19 21591.31,0.0
  20302099.250
  23399520.250
  20437332.250
  22063029.750
  23026664.750
  21770868.750
 18  5  2  3  0  4.0000000  0 07G08G10G14G21G27G31G32 21590.44,0.0
  22113359.750
  19222458.750
  19375313.750
  19624697.250
  20649473.250
  21060387.250
  18657184.250
 18  5  2 12  0  4.0000000  0 08G07G08G09G11G17G23G28G30 21589.57,0.0
  19632633.750
  19958806.750
  18845419.250
  21378565.250
  23362048.250
  21033125.750
  20116596.250
  20552737.250
 18  5  2 21  0  4.0000000  0 08G05G12G13G15G20G21G25G29 21588.70,0.0
  21723698.250
  22175738.750
  18946080.250
  19011873.250
  18234067.250
  19696070.250
  22166614.750
  23106338.750
 18  5  3  6  0  4.0000000  0 09G01G04G10G11G16G18G22G26G31 21587.83,0.0
  20918380.750
  20748404.750
  22028801.750
  22356642.250
  22425835.750
  20560895.750
  20434954.250
  20889893.250
  19461449.250
 18  5  3 15  0  4.0000000  0 08G01G06G13G15G17G19G28G30 21586.96,0.0
  19128667.750
  18417315.250
  18276295.250
  20537695.750
  22593626.750
  22742529.250
  23746726.250
  22704339.750
 18  5  4  0  0  4.0000000  0 09G04G10G13G15G16G20G21G26G29 21586.09,0.0
  20926752.750
  19561036.750
  20634122.750
  18066492.250
  21666053.750
  23613365.750
  18903043.250
  21350576.750
  23826615.750
 18  5  4  9  0  5.0000000  0 07G03G08G09G16G22G23G27 21585.22,0.0
  19953005.750
  22674057.750
  21490906.750
  19861724.750
  21160875.250
  19748419.250
  21716254.750
 18  5  4 18  0  4.0000000  0 06G02G06G12G17G19G24 21584.35,0.0
  20433178.750
  20866896.750
  21812194.750
  23368894.750
  22116621.750
  21959711.750
 18  5  5  3  0  9.0000000  0 07G10G14G20G21G24G31G32 +21583.480,0.0
  21018287.250
  21058574.250
  23043110.750
  21752466.250
  18109221.250
  22398124.250
  20526568.250
 18  5  5 12  0  4.0000000  0 07G07G09G11G17G23G28G30 21582.56,0.0
  21222890.750
  20833215.250
  22835471.250
  18595466.750
  23247662.250
  21778019.750
  22045194.750
 18  5  5 21  0  5.0000000  0 07G02G12G13G15G20G21G25 21581.65,0.0
  20283433.750
  18508502.250
  20597718.750
  20557183.750
  19903791.750
  21474264.750
  18168255.750
 18  5  6  6  0  4.0000000  0 09G04G10G11G16G18G22G26G31G32 21580.73,0.0
  20324740.250
  22255475.750
  22397423.250
  21786797.750
  20636767.750
  19967898.250
  20412346.750
  19589339.750
  22158700.750
 18  5  6 15  0  4.0000000  0 07G06G07G13G15G17G19G30 21579.82,0.0
  23439910.750
  18336087.750
  23865222.250
  20001633.750
  22155849.750
  22078964.750
  22451416.250
 18  5  7  0  0  6.0000000  0 09G04G10G15G16G20G21G26G29G32 21578.90,0.0
  21255030.750
  19425092.250
  18395560.250
  21778901.250
  23754491.750
  18769091.250
  21587674.750
  18234009.750
  21290472.250
 18  5  7  9  0  4.0000000  0 07G03G08G16G22G23G26G27 21577.98,0.0
  20227286.750
  22257769.250
  20161504.750
  21540271.750
  19534358.250
  22784667.250
  21440366.250
 18  5  7 18  0  5.0000000  0 07G02G05G06G12G17G19G24 21577.07,0.0
  22507733.750
  18684695.250
  23232219.750
  23479367.750
  19613808.250
  18369637.750
  18133268.250
 18  5  8  3  0  5.0000000  0 07G10G14G20G21G27G31G32 21576.15,0.0
  20812433.750
  20771146.750
  22983087.750
  21907044.250
  22731554.750
  21746513.250
  20420986.750
 18  5  8 12  0  4.0000000  0 07G07G09G11G17G23G28G30 21575.23,0.0
  22399566.250
  22447054.250
  23896750.750
  19403442.750
  19048752.250
  23040737.250
  23111412.750
 18  5  8 21  0  5.0000000  0 07G02G04G05G20G21G25G29 21574.32,0.0
  18795367.750
  19872024.250
  22556891.250
  23943567.250
  19616966.250
  22580428.750
  22745748.250
 18  5  9  6  0  4.0000000  0 08G04G10G11G16G18G26G31G32 21573.40,0.0
  21773428.250
  18333146.250
  18292401.250
  22972478.750
  22576071.750
  21796480.750
  21577898.250
  18033790.750
 18  5  9 15  0  4.0000000  0 08G01G02G06G13G17G19G28G30 21572.49,0.0
  18043799.250
  18394535.250
  21731836.250
  22746617.250
  20993207.750
  20702224.250
  22001969.750
  21486126.250
 18  5 10  0  0  4.0000000  0 07G10G15G16G20G21G26G27 21571.57,0.0
  21946965.750
  21407120.750
  18572795.750
  20532126.250
  21275434.750
  18482149.750
  18150259.750
 18  5 10  9  0  8.0000000  0 06G03G07G08G09G22G27 21570.65,0.0
  19037393.750
  20648374.750
  20335974.250
  19188436.250
  20431377.250
  19693976.250
 18  5 10 18  0  5.0000000  0 06G02G05G12G17G19G24 21569.74,0.0
  18225673.250
  19889499.750
  18776422.250
  21453318.750
  20220141.250
  19949677.250
 18  5 11  3  0  6.0000000  0 08G10G14G18G20G21G27G31G32 21568.82,0.0
  18766761.250
  18668758.250
  20968134.750
  21082169.750
  20252778.750
  20959931.750
  19267055.750
  18496245.750
 18  5 11 12  0  5.0000000  0 06G07G08G09G11G28G30 21567.90,0.0
  21196802.250
  22898704.750
  21710718.250
  22600335.750
  21927733.750
  21783279.750
 18  5 11 21  0  4.0000000  0 09G02G04G05G12G15G20G21G25G29 21566.99,0.0
  21214772.750
  21732057.750
  19129795.750
  19896534.750
  20274834.750
  19925695.750
  21676986.750
  18974023.250
  18678956.750
 18  5 12  6  0  9.0000000  0 09G01G03G04G10G11G16G18G22G31 21566.07,0.0
  22089644.250
  21709193.750
  21080079.750
  18236051.750
  18001289.750
  21971580.250
  22349488.750
  20573327.750
  21394525.750
 18  5 12 15  0  4.0000000  0 09G02G06G07G13G15G17G19G28G30 21565.16,0.0
  19010720.250
  22425205.250
  19110727.250
  18041902.750
  19904140.250
  22226647.250
  21737278.750
  23119348.750
  22931567.250
 18  5 13  0  0  4.0000000  0 07G10G15G20G21G24G29G32 21564.24,0.0
  21246340.750
  21218135.250
  20060487.750
  20547967.250
  22439020.250
  21184162.750
  22472999.750
 18  5 13  9  0  4.0000000  0 06G03G07G08G09G22G23 21563.32,0.0
  21022938.750
  22077042.250
  21577935.250
  20448847.250
  22473465.250
  19331946.250
 18  5 13 18  0  7.0000000  0 07G02G05G06G12G17G19G25 21562.41,0.0
  21315087.250
  22454581.750
  22585447.250
  21439890.250
  18640428.250
  23414660.250
  18885109.250
 18  5 14  3  0  4.0000000  0 08G08G10G11G14G18G27G31G32 21561.49,0.0
  18684166.250
  21698453.750
  19000431.750
  21564313.250
  23465090.750
  18172544.750
  21782250.250
  21560767.750
 18  5 14 12  0  4.0000000  0 09G01G09G11G17G18G19G23G28G30 21560.58,0.0
  18469557.750
  22726201.750
  23063337.750
  23982228.250
  18459011.250
  20454385.750
  19589627.250
  22549664.750
  22181557.750
 18  5 14 21  0  6.0000000  0 06G02G05G13G15G20G29 21559.66,0.0
  20276059.750
  18380330.250
  19203869.750
  18748562.250
  18565417.750
  23270691.250
 18  5 15  6  0  6.0000000  0 09G01G04G14G16G18G22G26G31G32 21558.74,0.0
  20669687.250
  19399294.750
  20648640.250
  19945761.250
  21091302.250
  18783249.750
  19266080.250
  20176509.750
  22327721.250
 18  5 15 15  0  4.0000000  0 08G02G06G07G13G15G17G19G30 21557.83,0.0
  23859156.250
  21387838.250
  18935431.250
  23591161.250
  19323243.250
  21712469.250
  21042161.250
  22640915.750
 18  5 16  0  0  4.0000000  0 08G10G15G16G20G21G24G27G32 21556.91,0.0
  19887115.750
  20390185.250
  23096808.250
  18910269.750
  19160186.250
  21011600.250
  21570411.750
  20798305.250
 18  5 16  9  0  4.0000000  0 06G03G07G09G16G23G30 21555.99,0.0
  18704136.750
  19177882.750
  23392186.250
  18754844.250
  22524496.750
  20907423.750
 18  5 16 18  0  6.0000000  0 08G02G05G06G12G17G19G25G29 21555.08,0.0
  23790309.250
  18407035.750
  19312866.250
  23501281.750
  21180260.250
  19969690.750
  20754604.250
  22051787.750
 18  5 17  3  0  5.0000000  0 06G10G14G20G21G31G32 21554.16,0.0
  19027577.750
  18866677.750
  21607458.250
  21327991.750
  18719421.750
  19024542.250
 18  5 17 12  0  4.0000000  0 08G01G07G08G11G13G17G18G30 21553.25,0.0
  20287413.750
  23757016.250
  20465213.250
  19040494.750
  21615662.750
  19630787.750
  20405473.750
  18056115.750
 18  5 17 21  0  4.0000000  0 08G02G04G05G13G15G21G26G29 21552.33,0.0
  19031623.250
  18580467.750
  23348535.750
  23566884.750
  22940337.250
  18796848.250
  20016160.250
  21591011.750
 18  5 18  6  0  4.0000000  0 09G03G04G11G14G16G22G23G26G31 21551.41,0.0
  20738825.250
  20707140.250
  18254142.250
  22095962.250
  20874294.750
  19960820.250
  22978394.250
  20484436.750
  21893489.750
 18  5 18 15  0  4.0000000  0 09G02G06G13G15G17G19G24G28G30 21550.50,0.0
  23295879.250
  20967860.750
  23739731.750
  19340895.250
  21783803.250
  20952717.750
  18245659.750
  22401459.750
  22948901.250
 18  5 19  0  0  5.0000000  0 07G10G15G20G21G24G29G32 21549.58,0.0
  18787569.750
  19837974.250
  17999857.250
  18036901.250
  19864724.750
  19906973.250
  19392598.250
 18  5 19  9  0  4.0000000  0 06G03G08G09G16G23G27 21548.66,0.0
  19895042.250
  18952338.750
  23858321.250
  19995683.250
  23258845.750
  19017711.750
 18  5 19 18  0  4.0000000  0 07G02G05G06G12G19G25G29 21547.75,0.0
  22293539.250
  22392242.750
  18046346.750
  21614379.250
  18528019.750
  18642234.750
  20124075.250
 18  5 20  3  0  3.0000000  0 09G01G08G10G11G18G22G27G31G32 21546.83,0.0
  22636834.250
  22590793.750
  19406844.250
  21948411.750
  20349268.250
  23218259.750
  22395163.750
  18735785.750
  19533474.250
 18  5 20 12  0  4.0000000  0 09G01G07G09G13G17G18G19G28G30 21545.92,0.0
  23454626.750
  21138266.750
  23090833.750
  18587961.250
  22627797.750
  23720194.250
  18897213.750
  22075377.750
  21263583.750
 18  5 20 21  0 10.0000000  0 09G02G04G05G12G13G15G20G25G29 +21545.000,0.0
  22467657.750
  21609869.750
  21025561.250
  22010603.250
  20660823.750
  19846245.750
  19987702.750
  20461455.250
  18625124.750
 18  5 21  6  0  4.0000000  0 09G01G03G04G11G16G18G23G31G32 21544.14,0.0
  19580275.250
  23553885.750
  23869145.250
  21624374.250
  23631515.250
  20246968.750
  19832296.250
  19409437.250
  21239373.250
 18  5 21 15  0  4.0000000  0 07G02G06G13G17G19G28G30 21543.28,0.0
  21121792.250
  18970724.250
  22275161.750
  20236576.750
  19265183.750
  20713044.750
  21651554.750
 18  5 22  0  0  4.0000000  0 07G15G20G21G24G27G29G32 21542.41,0.0
  20827794.750
  18605446.750
  18460760.250
  20284504.750
  20480563.750
  20937908.250
  19544282.250
 18  5 22  9  0  4.0000000  0 07G03G07G08G09G16G23G27 21541.55,0.0
  19652845.250
  18922228.250
  17998226.750
  22916151.250
  19807749.750
  22600842.250
  18349445.250
 18  5 22 18  0  4.0000000  0 06G02G05G06G12G17G19 21540.69,0.0
  19688109.750
  19298172.750
  21650335.750
  18651809.250
  23156518.750
  21961279.250
 18  5 23  3  0  3.0000000  0 09G01G10G11G14G18G20G22G31G32 21539.83,0.0
  23577989.750
  20863161.250
  23065917.250
  20652927.750
  21427000.250
  23665556.250
  18263065.250
  19859553.250
  21107711.250
 18  5 23 12  0  4.0000000  0 08G07G09G11G13G17G19G28G30 21538.97,0.0
  18373732.250
  20779599.250
  19619282.750
  21404783.750
  19485024.750
  21604391.250
  19326701.750
  18314316.750
 18  5 23 21  0  4.0000000  0 09G04G05G13G15G20G21G25G26G29 21538.10,0.0
  22161389.750
  22166158.750
  21268421.250
  20257321.250
  20538973.750
  22427761.250
  21514561.250
  23431007.250
  19161451.250
 18  5 24  6  0  4.0000000  0 09G01G03G04G14G16G18G22G26G31 21537.24,0.0
  20342235.750
  23786477.250
  18476414.250
  19992330.750
  23812895.250
  21091763.750
  23414765.750
  18061487.750
  20296434.750
 18  5 24 15  0  4.0000000  0 07G02G06G13G15G17G19G24 21536.38,0.0
  20031257.750
  18089254.750
  21876263.250
  23227381.750
  19752979.750
  18661756.750
  21010243.750
 18  5 25  0  0  4.0000000  0 06G10G15G20G21G24G27 21535.52,0.0
  21644514.750
  23805217.250
  21178541.750
  20889585.250
  22729300.250
  22742154.250
 18  5 25  9  0  4.0000000  0 07G07G08G09G11G16G23G27 21534.66,0.0
  18819728.250
  23835191.750
  22764473.750
  21598119.250
  20376215.250
  22743075.250
  18491791.250
 18  5 25 18  0  7.0000000  0 08G02G05G06G12G17G19G24G25 21533.80,0.0
  23125611.750
  22279591.750
  19289856.250
  21774169.250
  20630082.750
  19438348.750
  19413981.750
  18248318.250
 18  5 26  3  0  4.0000000  0 07G04G10G14G20G22G31G32 21532.93,0.0
  23382280.250
  20302106.250
  20058205.250
  23196380.250
  23236484.750
  18998692.750
  20642786.250
 18  5 26 12  0  4.0000000  0 08G01G07G09G13G17G19G28G30 21532.07,0.0
  21957080.750
  20062969.250
  22885578.750
  22678171.250
  20798384.750
  22744216.250
  20992469.250
  19805667.250
 18  5 26 21  0  4.0000000  0 09G04G05G10G13G20G21G25G26G29 21531.21,0.0
  23714150.250
  18263023.750
  19379503.250
  22872955.250
  22051856.750
  23910549.750
  23538302.750
  18890570.750
  20684944.250
 18  5 27  6  0  4.0000000  0 08G01G03G11G16G18G22G23G31 21530.35,0.0
  21425172.250
  18375750.750
  23369795.750
  18360580.250
  22231110.250
  18217508.750
  20560425.250
  21482901.250
 18  5 27 15  0  7.0000000  0 06G02G03G06G17G19G28 21529.49,0.0
  23610481.250
  21086338.750
  21907272.750
  23910037.750
  22718966.250
  18146466.250
 18  5 28  0  0  4.0000000  0 08G08G10G14G20G21G24G27G32 21528.62,0.0
  19887773.750
  21955194.250
  23625232.250
  21628263.750
  21236246.750
  23109129.750
  22940983.750
  21802649.750
 18  5 28  9  0  4.0000000  0 06G07G08G09G16G23G27 21527.76,0.0
  20841816.250
  19860796.750
  18789861.250
  23072006.250
  19069241.750
  20823224.750
 18  5 28 18  0  5.0000000  0 07G02G05G12G19G24G25G29 21526.90,0.0
  22532179.750
  21280978.750
  20921578.250
  18879045.750
  18922776.250
  23071121.750
  18913938.750
 18  5 29  3  0  4.0000000  0 08G04G10G11G18G25G26G31G32 21526.04,0.0
  23387881.250
  20821936.250
  22424910.250
  20705313.750
  23361324.750
  23603313.250
  19252265.750
  21231473.250
 18  5 29 12  0  5.0000000  0 08G07G09G11G13G17G19G28G30 21525.18,0.0
  19931671.750
  23127171.250
  21218168.750
  22131031.250
  20294396.750
  22041115.750
  20792809.250
  19465824.250
 18  5 29 21  0  4.0000000  0 09G04G10G12G15G20G21G25G26G29 21524.31,0.0
  18242121.250
  19549916.750
  20350648.250
  22015510.250
  22497577.750
  18303127.250
  18496062.250
  19309910.750
  21171515.750
 18  5 30  6  0  4.0000000  0 07G01G03G16G18G22G23G26 21523.45,0.0
  23186486.250
  19685135.250
  19638636.750
  18027595.750
  19741611.750
  21734097.250
  20542597.250
 18  5 30 15  0  5.0000000  0 06G02G06G17G19G24G28 21522.59,0.0
  23682690.250
  22242208.750
  18522495.250
  23246711.250
  18730106.250
  18666866.250
 18  5 31  0  0  4.0000000  0 08G10G14G15G20G21G24G27G32 21521.73,0.0
  21345247.750
  22678637.250
  18618013.750
  21146029.750
  20696663.750
  22620069.250
  22269369.250
  21013325.750
 18  5 31  9  0  5.0000000  0 07G07G08G09G23G27G28G30 21520.87,0.0
  22888926.250
  21969871.750
  20890767.750
  21474256.250
  23244922.750
  23479000.250
  18293189.250
 18  5 31 18  0  8.0000000  0 05G02G05G12G24G25 21520.00,0.0
  20676269.750
  19073801.750
  18865796.750
  23153994.250
  20668939.750
 18  6  1  3  0  5.0000000  0 06G08G10G11G18G22G31 21519.14,0.0
  23884643.250
  20369328.750
  21712546.750
  19956939.250
  22256496.250
  18565737.750
 18  6  1 12  0  4.0000000  0 07G07G09G13G17G19G28G30 21518.28,0.0
  20685679.750
  18203964.750
  22472809.750
  20680036.250
  22205772.750
  21428758.250
  20003535.250
 18  6  1 21  0  4.0000000  0 07G04G13G15G20G21G26G29 21517.42,0.0
  23204093.750
  22471477.750
  20817907.250
  21347204.750
  23065251.750
  18167456.250
  20096495.250
 18  6  2  6  0  4.0000000  0 08G03G04G09G14G16G22G23G26 21516.56,0.0
  23612750.750
  19480013.750
  21633622.750
  20797285.250
  23545797.750
  23880062.750
  19465575.250
  18771651.750
 18  6  2 15  0  4.0000000  0 08G02G05G06G13G17G19G24G30 21515.70,0.0
  18573942.750
  22823077.250
  23414164.250
  22251905.750
  19902865.750
  18567966.750
  19662994.750
  22405493.250
 18  6  3  0  0  7.0000000  0 09G10G14G20G21G24G27G29G31G32 21514.83,0.0
  20163184.250
  21183424.750
  20080736.250
  19621402.750
  21611309.750
  21078579.750
  18181727.750
  23809230.250
  19691848.750
 18  6  3  9  0  4.0000000  0 07G07G08G09G11G23G28G30 21513.97,0.0
  19535467.250
  18745678.250
  23647745.250
  21896341.250
  18534838.750
  20027555.750
  20868479.250
 18  6  3 18  0  8.0000000  0 05G02G05G12G19G25 21513.11,0.0
  22744198.750
  20855030.250
  20800047.250
  19183825.750
  22240655.750
 18  6  4  3  0  4.0000000  0 09G01G10G11G14G18G22G25G31G32 21512.25,0.0
  18869538.250
  18184463.750
  19293345.750
  23721915.250
  23503767.250
  19491654.250
  20281998.750
  22175574.250
  18636969.250
 18  6  4 12  0  5.0000000  0 07G06G07G13G17G19G28G30 21511.39,0.0
  21585560.750
  18276722.750
  19656760.250
  23900781.750
  19190468.250
  18847681.750
  23367763.750
 18  6  4 21  0  4.0000000  0 09G04G10G13G16G20G21G25G26G29 21510.52,0.0
  18149183.250
  18654813.250
  23479385.250
  19970096.250
  22137310.750
  23743588.250
  19106840.750
  18997078.250
  21003515.250
 18  6  5  6  0  4.0000000  0 07G03G14G16G22G23G26G27 21509.66,0.0
  18284981.250
  21708950.750
  18209128.750
  18754814.250
  19871254.250
  19730265.250
  21995935.250
 18  6  5 15  0 11.0000000  0 06G02G06G17G19G24G28 +21508.800,0.0
  19251616.750
  18400361.750
  21027456.750
  19645204.750
  20396542.250
  21087794.250
 18  6  6  0  0  4.0000000  0 08G08G10G14G20G21G24G27G32 21508.10,0.0
  21752644.250
  18591045.750
  19335700.250
  18615175.250
  18199054.250
  20267129.250
  19552140.250
  18027890.750
 18  6  6  9  0 11.0000000  0 04G09G11G23G28 +21507.400,0.0
  18880004.250
  22784285.750
  20055106.250
  21018021.750
 18  6  6 18  0 11.0000000  0 02G19G21 21506.51,0.0
  21037078.750
  21531320.250
 18  6  7  3  0  4.0000000  0 09G01G04G10G11G14G16G18G22G31 21505.62,0.0
  19535074.250
  20103330.250
  19325335.250
  20218908.250
  18741472.750
  22110629.750
  18412640.250
  20013763.750
  23144095.250
 18  6  7 12  0  8.0000000  0 07G06G07G13G17G19G28G30 21504.73,0.0
  22190962.750
  19626303.750
  20608500.750
  18891250.250
  19922217.250
  19969552.250
  18496674.250
 18  6  7 21  0  4.0000000  0 08G04G10G13G15G20G21G26G29 21503.84,0.0
  20077097.750
  20146049.750
  19486972.250
  23399771.250
  23880392.750
  19356161.750
  20814190.750
  22906810.250
 18  6  8  6  0  4.0000000  0 09G03G04G07G14G16G22G23G26G27 21502.96,0.0
  22254308.750
  18865121.250
  20211500.750
  19884545.750
  22180787.250
  22914423.250
  23518674.250
  23976781.750
  19592827.750
 18  6  8 15  0  5.0000000  0 07G02G05G06G12G17G19G24 21502.07,0.0
  18303614.250
  22141339.750
  23760562.750
  20567304.750
  20469161.250
  19053784.250
  19515479.750
 18  6  9  0  0  4.0000000  0 07G10G20G21G24G27G31G32 21501.18,0.0
  22877676.750
  23001822.750
  22680008.750
  18840134.250
  23937259.250
  19676253.750
  22267282.250
 18  6  9  9  0  4.0000000  0 07G07G08G09G11G23G27G30 21500.29,0.0
  19566529.250
  19239216.750
  18100659.750
  21609162.250
  19546236.250
  21388540.250
  20752526.750
 18  6  9 18  0 10.0000000  0 04G02G12G25G29 +21499.400,0.0
  23038261.750
  21026251.250
  21714841.250
  23280504.250
 18  6 10  3  0  4.0000000  0 09G01G04G10G11G16G18G22G26G31 21498.55,0.0
  18738282.750
  19108148.250
  18982474.750
  19677431.750
  21046931.750
  23856909.750
  19020530.750
  19296364.750
  22654646.250
 18  6 10 12  0  4.0000000  0 07G06G07G13G17G19G28G30 21497.69,0.0
  23051169.250
  21277465.250
  21879355.250
  20187216.750
  20958210.750
  21342754.750
  19928647.750