     2.00           OBSERVATION DATA    G(GPS)              RINEX VERSION / TYPE
goGPS-java                              14-Jun-22 19:23:32  PGM / RUN BY / DATE
                                                            MARKER NAME
                                                            MARKER NUMBER
                    Lotek Wireless Inc.                     OBSERVER / AGENCY
7                                                           REC # / TYPE / VERS
                                                            ANT # / TYPE
 -1701871.0000 -5580152.0000  2569378.0000                  APPROX POSITION XYZ
        0.0000        0.0000        0.0000                  ANTENNA: DELTA H / E / N
     2     0                                                WAVELENGTH FACT L1/2
     1    C1                                                # / TYPES OF OBSERV
  2022     4    22     2    35   12.0000000     UTC         TIME OF FIRST OBS
                                                            END OF HEADER
 22  4 22 13  0  7.0000000  0 06G04G08G09G16G27G30 2.00,0.0,0.00
  22928504.250
  18247937.250
  23300004.250
  19500466.250
  18541559.750
  21097380.250
 22  4 23  4  0 11.0000000  0 09G10G15G18G22G23G24G27G29G32 -84.200,0.0,0.00
  20714616.250
  21944668.250
  19473694.250
  22460099.750
  20057189.750
  21323075.250
  21774468.250
  22284527.750
  21026545.250
 22  4 23 16  0 10.0000000  0 09G07G09G13G14G17G19G21G28G30 -1.600,0.0,0.00
  19323550.750
  22092577.750
  22292647.250
  20182854.750
  19975332.750
  22122214.750
  22411700.250
  21018074.750
  19543560.250
 22  4 24  4  0  4.0000000  0 06G10G22G23G27G29G32 -3.50,0.0,0.00
  23543646.750
  19124499.750
  22955353.750
  18519865.250
  19365335.750
  23719055.750
 22  4 24 16  0  4.0000000  0 07G07G09G13G14G21G28G30 -5.40,0.0,0.00
  19842337.750
  22770849.750
  22689714.750
  20687123.750
  22970238.250
  21506124.750
  20009391.750
 22  4 25  4  0  8.0000000  0 08G10G15G18G22G23G24G27G32 -7.30,0.0,0.00
  23597939.250
  19251128.250
  22460309.250
  19056861.750
  23062749.750
  18197750.250
  18511319.750
  23677022.750
 22  4 25 16  0  5.0000000  0 08G01G07G08G13G14G21G28G30 -9.20,0.0,0.00
  23078750.750
  21064270.750
  19007307.250
  23785782.250
  21890836.250
  18238131.250
  22693338.250
  21175341.250
 22  4 26  4  0  4.0000000  0 07G10G15G18G22G24G27G32 -11.10,0.0,0.00
  21811517.750
  23634892.250
  20720067.750
  23142676.250
  22405530.250
  22665813.750
  21794317.250
 22  4 26 16  0  5.0000000  0 07G01G07G13G14G21G28G30 -13.00,0.0,0.00
  22625460.250
  20682575.750
  23278955.250
  21487970.750
  23894558.750
  22274247.750
  20736764.250
 22  4 27  4  0  7.0000000  0 08G10G15G22G23G24G27G29G32 -14.90,0.0,0.00
  18518237.750
  20522787.750
  19727380.750
  18085637.250
  19119505.250
  19320867.250
  20904922.750
  18408661.750
 22  4 27 16  0 10.0000000  0 05G09G17G19G21G28 -16.800,0.0,0.00
  22259899.750
  19092255.750
  21025434.750
  22116295.750
  20410542.250
 22  4 28  4  0  4.0000000  0 07G10G18G22G23G27G29G32 -1.76,0.0,0.00
  19448137.250
  18472489.250
  20533522.750
  19069697.250
  20203027.250
  22033406.750
  19247517.750
 22  4 28 16  0  4.0000000  0 07G01G07G17G19G21G28G30 -3.52,0.0,0.00
  19431671.750
  23630185.250
  23755742.250
  19628868.250
  20935509.250
  19138422.750
  23563353.750
 22  4 29  4  0  7.0000000  0 07G10G18G22G24G27G29G32 -5.28,0.0,0.00
  23701365.250
  22789275.750
  18674249.250
  18339837.750
  18420395.250
  20480515.750
  23417259.750
 22  4 29 16  0  7.0000000  0 08G01G07G13G14G19G21G28G30 -7.03,0.0,0.00
  19893930.750
  18166729.750
  20379295.250
  18885032.750
  19993990.250
  21512153.250
  19621902.750
  18038686.750
 22  4 30  4  0  4.0000000  0 07G08G10G15G18G23G24G27 -8.79,0.0,0.00
  21461379.250
  18039420.250
  20590632.250
  23189783.250
  23759177.250
  18698455.750
  18721085.250
 22  4 30 16  0  4.0000000  0 08G01G07G13G14G17G19G28G30 -10.55,0.0,0.00
  20953100.750
  19293399.250
  21383316.250
  19975925.750
  19218538.250
  20955954.250
  20697020.750
  19104715.750
 22  5  1  4  0  4.0000000  0 07G08G10G15G18G23G24G27 -12.31,0.0,0.00
  21833888.250
  18504542.750
  21234349.750
  23726960.750
  18279488.250
  19194918.250
  19158472.750
 22  5  1 16  0  5.0000000  0 06G01G07G17G19G21G28 -14.07,0.0,0.00
  20487232.750
  18895049.750
  18721009.250
  20388229.750
  22327285.250
  20241260.250
 22  5  2  4  0  4.0000000  0 07G08G10G15G18G23G24G27 -15.83,0.0,0.00
  19803253.750
  22559100.750
  19471720.750
  21863510.750
  22385383.750
  23288168.250
  23191255.750
 22  5  2 16  0  4.0000000  0 07G01G07G17G19G21G28G30 -17.59,0.0,0.00
  21291175.250
  19764981.750
  19493771.750
  21088870.750
  23240051.250
  21049966.250
  19450290.750
 22  5  3  4  0  4.0000000  0 06G10G18G22G23G27G32 -19.35,0.0,0.00
  18687132.750
  18073040.250
  19228166.750
  18564208.250
  19304000.750
  18121041.750
 22  5  3 16  0  4.0000000  0 09G01G07G13G14G17G19G21G28G30 -21.10,0.0,0.00
  22548620.750
  21087460.750
  22806327.250
  21633809.250
  20719726.250
  22239925.750
  18609310.250
  22306497.750
  20708756.250
 22  5  4  4  0  6.0000000  0 06G10G18G22G23G24G32 -22.86,0.0,0.00
  23195320.250
  22668022.750
  23636679.250
  23123568.250
  18023300.750
  22569986.750
 22  5  4 16  0  7.0000000  0 07G07G13G14G17G19G28G30 -24.62,0.0,0.00
  21044104.750
  22638831.750
  21534835.250
  20579447.250
  22021517.250
  22190877.250
  20599708.250
 22  5  5  4  0  5.0000000  0 06G10G18G22G23G27G32 -26.38,0.0,0.00
  18264249.750
  23823904.750
  18611306.250
  18243229.750
  18869341.250
  23581575.750
 22  5  5 16  0  3.0000000  0 08G01G07G14G17G19G21G28G30 -28.14,0.0,0.00
  19638879.750
  18303750.250
  18735476.750
  23741399.750
  19109718.250
  21903549.750
  19375054.250
  23790690.250
 22  5  6  4  0  4.0000000  0 06G08G10G23G24G27G32 -29.90,0.0,0.00
  22630167.750
  19705055.750
  19734704.750
  20649187.250
  20313839.250
  18978551.250
 22  5  6 16  0 11.0000000  0 02G13G28 -31.66,0.0,0.00
  21034894.250
  20672093.750
 22  5  7  4  0  8.0000000  0 08G08G10G18G22G23G24G27G32 -33.42,0.0,0.00
  19806104.250
  22945304.750
  22707394.250
  23114503.250
  23026786.250
  23960536.750
  23564433.250
  22175294.250
 22  5  7 16  0  5.0000000  0 07G01G07G13G14G15G28G30 -35.17,0.0,0.00
  23770494.750
  22556383.250
  23788470.750
  22852841.750
  20447211.250
  23457731.750
  21914476.250
 22  5  8  4  0  4.0000000  0 07G08G10G18G23G24G27G32 -36.93,0.0,0.00
  23088638.250
  20293273.250
  20159779.250
  20425007.250
  21383572.250
  20928813.750
  19486732.750
 22  5  8 16  0  4.0000000  0 08G06G07G13G14G17G19G28G30 -38.69,0.0,0.00
  23825766.250
  20634453.250
  21747878.750
  20856456.250
  19795185.250
  20910590.250
  21443467.250
  19926197.750
 22  5  9  4  0  7.0000000  0 06G08G10G18G23G24G27 -40.45,0.0,0.00
  22063603.250
  19326288.250
  19304682.250
  19509972.250
  20500127.750
  19984891.750
 22  5  9 16  0  4.0000000  0 06G13G14G17G19G28G30 -42.21,0.0,0.00
  20495045.750
  19641937.250
  18568096.250
  19597722.250
  20210447.750
  18724605.250
 22  5 10  4  0  6.0000000  0 06G10G18G22G27G31G32 -43.97,0.0,0.00
  19206685.250
  19300508.250
  19145506.750
  19894110.750
  22314849.250
  18341167.250
 22  5 10 16  0  4.0000000  0 07G06G07G14G17G19G28G30 -45.73,0.0,0.00
  21121283.750
  18411640.250
  18469705.750
  23384598.750
  18331392.250
  19019110.250
  23566030.250
 22  5 11  4  0  9.0000000  0 07G08G10G18G22G23G24G27 -47.49,0.0,0.00
  21309676.250
  18672055.750
  18887576.750
  18542211.250
  18959858.750
  20030541.250
  19394928.750
 22  5 11 16  0  4.0000000  0 06G07G13G14G17G28G30 -49.24,0.0,0.00
  22205566.250
  22969569.250
  22174789.750
  21092057.250
  22704441.250
  21297968.250
 22  5 12  4  0  4.0000000  0 07G08G10G18G23G24G27G32 -51.00,0.0,0.00
  22913775.250
  20317152.750
  20654330.250
  20656094.250
  21774163.250
  21079598.250
  19413603.750
 22  5 12 16  0  4.0000000  0 07G06G07G14G17G19G28G30 -52.76,0.0,0.00
  18598345.250
  22389740.750
  22265575.250
  21186264.750
  21952324.250
  22774744.250
  21416418.250
 22  5 13  4  0  9.0000000  0 06G08G10G18G22G27G31 -54.520,0.0,0.00
  23577419.750
  21018314.750
  21488019.750
  20766539.250
  21828427.750
  23679503.250
 22  5 13 16  0  4.0000000  0 06G01G14G17G19G28G30 -1.72,0.0,0.00
  23481761.250
  22352310.250
  21284116.750
  21940750.750
  22835395.250
  21544145.250
 22  5 14  4  0  5.0000000  0 07G08G10G22G23G24G27G32 -3.45,0.0,0.00
  22401576.750
  19880845.750
  19565262.250
  20338961.250
  21583098.250
  20754653.750
  18959589.250
 22  5 14 16  0  4.0000000  0 08G06G07G13G14G17G19G28G30 -5.17,0.0,0.00
  23065457.250
  21447501.250
  21850803.750
  21100001.250
  20046145.750
  20613125.750
  21560842.250
  20330634.250
 22  5 15  4  0  6.0000000  0 06G10G18G22G27G31G32 -6.90,0.0,0.00
  23639096.250
  18415281.250
  23274125.250
  18575242.750
  19969954.250
  22716679.750
 22  5 15 16  0  4.0000000  0 07G06G07G14G17G19G28G30 -8.62,0.0,0.00
  22201505.750
  20854912.250
  20399968.250
  19365067.750
  19842314.750
  20837695.250
  19674447.750
 22  5 16  4  0  4.0000000  0 07G08G10G18G21G23G24G32 -10.35,0.0,0.00
  22346176.250
  19870280.250
  20780414.250
  23628183.750
  20435009.750
  21812568.250
  18950789.750
 22  5 16 16  0  4.0000000  0 08G06G07G13G14G17G19G28G30 -12.07,0.0,0.00
  21700178.750
  20629393.750
  20816050.750
  20062676.750
  19051137.250
  19438830.250
  20476352.750
  19386092.750
 22  5 17  4  0  7.0000000  0 09G08G10G18G22G23G24G27G31G32 -13.80,0.0,0.00
  21382977.250
  18922351.750
  19979732.750
  18471398.750
  19542202.250
  20994275.750
  19984608.750
  20936920.250
  18010969.250
 22  5 17 16  0  5.0000000  0 07G06G07G14G17G19G28G30 -15.52,0.0,0.00
  20475901.750
  19686149.750
  19002939.250
  18019079.250
  18317291.250
  19391448.750
  18380642.750
 22  5 18  4  0  4.0000000  0 08G08G10G21G22G23G27G31G32 -17.25,0.0,0.00
  19447189.250
  22992131.250
  20509539.750
  22505858.250
  23666108.250
  18129472.250
  18857508.750
  22093038.250
 22  5 18 16  0  4.0000000  0 08G07G13G14G15G17G19G28G30 -18.97,0.0,0.00
  22767161.250
  22742696.750
  21964357.750
  19069263.250
  21011914.250
  21222004.250
  22326791.250
  21400951.750
 22  5 19  4  0  5.0000000  0 08G08G10G18G21G22G23G24G27 -20.70,0.0,0.00
  22524830.250
  20078780.750
  21436305.750
  23468732.750
  19560937.250
  20808246.750
  22419827.250
  21288092.750
 22  5 19 16  0  4.0000000  0 08G06G07G13G14G17G19G28G30 -22.42,0.0,0.00
  18451910.250
  18231240.750
  18103526.250
  23300438.750
  22383268.250
  22505607.750
  23635471.250
  22801138.750
 22  5 20  4  0  5.0000000  0 07G08G10G21G22G23G27G32 -24.15,0.0,0.00
  21079213.250
  18633022.250
  21900014.750
  18088225.750
  19418245.250
  19921979.250
  23767084.750
 22  5 20 16  0  4.0000000  0 08G06G07G13G14G17G19G28G30 -25.87,0.0,0.00
  18099517.250
  18167823.250
  23934347.250
  23109826.250
  22231287.250
  22266839.250
  23416152.750
  22679400.250
 22  5 21  4  0  4.0000000  0 07G08G10G18G21G23G24G27 -27.60,0.0,0.00
  18237097.750
  21781940.750
  23448087.750
  18930591.250
  22623100.750
  18413046.250
  23153352.250
 22  5 21 16  0  4.0000000  0 08G06G07G13G15G17G19G28G30 -29.32,0.0,0.00
  18841289.250
  19200274.250
  18870431.750
  21084730.250
  23174707.250
  23124574.250
  18291991.750
  23654961.250
 22  5 22  4  0  4.0000000  0 07G10G18G22G23G27G31G32 -31.05,0.0,0.00
  20464257.250
  22284973.750
  19877307.750
  21362184.250
  21921435.250
  21704548.250
  19653798.250
 22  5 22 16  0  5.0000000  0 06G01G07G14G17G28G30 -32.77,0.0,0.00
  18286544.750
  23741406.250
  22424332.750
  21632131.750
  22669335.250
  22145222.750
 22  5 23  4  0  4.0000000  0 08G08G18G21G22G23G27G31G32 -34.50,0.0,0.00
  23277528.250
  22780915.250
  23702081.750
  20201227.250
  21759148.750
  22349329.750
  21890376.250
  20023635.750
 22  5 23 16  0  4.0000000  0 08G06G07G13G14G17G19G28G30 -36.22,0.0,0.00
  18823411.750
  19766007.250
  19243113.750
  18315034.250
  23564891.250
  23347098.250
  18527321.750
  18116785.750
 22  5 24  4  0  8.0000000  0 09G08G10G18G21G22G23G24G31G32 -37.95,0.0,0.00
  18046624.750
  21551472.750
  23687820.750
  18328828.750
  20935708.250
  22565275.250
  18636589.750
  22481403.750
  20804412.750
 22  5 24 16  0  4.0000000  0 07G01G06G14G17G19G28G30 -39.67,0.0,0.00
  18708252.250
  22982211.250
  22629493.750
  21932103.750
  21632641.250
  22807706.750
  22516347.750
 22  5 25  4  0 11.0000000  0 08G10G18G22G23G24G27G31G32 -41.400,0.0,0.00
  21025668.750
  23323074.250
  20400774.250
  22098450.750
  18266490.750
  22756111.750
  21803234.750
  20314362.250
 22  5 25 16  0  4.0000000  0 06G06G14G17G19G28G30 -1.74,0.0,0.00
  18012204.750
  23834958.250
  23196332.750
  22803661.250
  23971534.250
  23826267.750
 22  5 26  4  0  4.0000000  0 07G08G10G21G22G27G31G32 -3.49,0.0,0.00
  19015793.250
  22471529.750
  18984163.250
  21838650.250
  18312240.250
  23076316.750
  21802668.750
 22  5 26 16  0  4.0000000  0 08G06G07G13G14G17G19G28G30 -5.23,0.0,0.00
  22137168.250
  18007863.250
  23188808.750
  22115126.250
  21528470.250
  21057827.750
  22214497.250
  22198948.750
 22  5 27  4  0  3.0000000  0 07G08G10G21G22G23G31G32 -6.97,0.0,0.00
  21180899.250
  18612716.250
  20999604.250
  23971813.750
  19811880.250
  19069311.750
  23978886.250
 22  5 27 16  0  4.0000000  0 07G06G13G14G17G19G28G30 -8.71,0.0,0.00
  21866628.750
  23118980.250
  21993206.750
  21459619.750
  20912904.250
  22053859.250
  22172624.750
 22  5 28  4  0  9.0000000  0 07G08G10G21G22G27G31G32 -10.46,0.0,0.00
  18326576.750
  21721854.750
  17988579.250
  21083759.750
  23750538.250
  22027589.750
  21134238.250
 22  5 28 16  0 11.0000000  0 04G06G11G17G19 -12.200,0.0,0.00
  21851196.750
  24990816.250
  21649410.250
  21026708.250
 22  5 29  4  0  7.0000000  0 09G08G10G18G21G23G25G27G31G32 -1.78,0.0,0.00
  23862267.250
  21227275.250
  18201465.750
  23363280.250
  22549519.750
  18512003.750
  23354135.750
  21380535.750
  20683209.750
 22  5 29 16  0  4.0000000  0 07G02G06G13G17G19G28G30 -3.57,0.0,0.00
  23626741.250
  20781470.750
  22444032.250
  20781731.750
  20085534.750
  21180800.750
  21588763.750
 22  5 30  4  0  7.0000000  0 09G08G10G18G22G23G25G27G31G32 -5.35,0.0,0.00
  19609898.750
  22934835.750
  20068316.250
  22298753.750
  18321017.250
  20135978.750
  19160288.250
  22944253.250
  22433607.250
 22  5 30 16  0  4.0000000  0 09G02G06G07G11G14G17G19G28G30 -7.13,0.0,0.00
  20670212.750
  23871902.250
  20901281.750
  20902845.750
  18437953.250
  18068995.750
  23299197.250
  18370153.250
  18927207.250
 22  5 31  4  0 11.0000000  0 04G21G23G27G31 -8.92,0.0,0.00
  23054063.750
  22601846.750
  23475568.250
  21024994.250
 22  5 31 16  0  4.0000000  0 09G02G06G11G13G17G19G24G28G30 -10.70,0.0,0.00
  21855779.750
  19116464.750
  22079931.250
  21172619.750
  19501590.750
  18668520.750
  22193304.250
  19703512.250
  20409643.250
 22  6  1  4  0  4.0000000  0 08G01G08G10G21G22G23G31G32 -12.48,0.0,0.00
  18218289.750
  23665711.750
  20918084.250
  22696779.250
  20290114.750
  22418998.750
  20648250.250
  20503152.250
 22  6  1 16  0  4.0000000  0 09G02G06G11G13G14G17G19G28G30 -14.27,0.0,0.00
  22771541.750
  20090004.250
  22986085.750
  22339008.750
  20921957.250
  20660146.750
  19762390.750
  20762000.250
  21624375.250
 22  6  2  4  0  4.0000000  0 06G08G10G21G22G27G32 -16.05,0.0,0.00
  19995622.750
  23201283.250
  18868517.750
  22580338.250
  19702617.250
  22831066.750
 22  6  2 16  0  9.0000000  0 09G02G06G11G13G14G15G24G28G30 -17.83,0.0,0.00
  18580933.750
  21957934.750
  18784111.750
  18406761.250
  22923480.250
  20157720.250
  18960932.250
  22715146.250
  23735237.750
 22  6  3  4  0  5.0000000  0 07G01G08G10G21G22G23G32 -19.62,0.0,0.00
  20033690.750
  19912388.750
  23078133.750
  18625735.250
  22462092.750
  18703095.750
  22749950.750
 22  6  3 16  0 10.0000000  0 09G02G06G11G13G17G19G24G28G30 -21.400,0.0,0.00
  23666809.750
  21113033.250
  23857818.250
  23743816.250
  22048349.250
  21026628.250
  18070819.250
  21945968.750
  23127591.250
 22  6  4  4  0  4.0000000  0 08G08G10G21G22G23G27G31G32 -1.84,0.0,0.00
  20105170.250
  23225990.750
  18647392.250
  22616692.250
  18915981.750
  19908376.250
  22541851.750
  22943283.250
 22  6  4 16  0  9.0000000  0 09G02G06G11G13G14G17G19G28G30 -3.68,0.0,0.00
  21815803.750
  19335983.750
  21992149.750
  22165690.750
  20561952.750
  20459613.750
  19375783.250
  20247393.750
  21603019.750
 22  6  5  4  0  5.0000000  0 07G08G10G21G22G27G31G32 -5.52,0.0,0.00
  22389177.750
  19471909.750
  20773941.750
  18869224.750
  22233046.250
  18658533.750
  19230784.250
 22  6  5 16  0  4.0000000  0 07G06G14G17G19G24G28G30 -7.36,0.0,0.00
  20661469.750
  22004825.250
  21948929.250
  20810869.250
  23521798.750
  21637922.250
  23153286.750
 22  6  6  4  0  8.0000000  0 06G10G21G22G23G27G31 -9.20,0.0,0.00
  20889110.250
  22075444.750
  20292295.250
  22695032.750
  23730136.750
  19948602.750
 22  6  6 16  0  6.0000000  0 09G02G06G11G13G14G15G19G24G30 -11.04,0.0,0.00
  20835949.750
  18501773.750
  20981384.750
  21679237.250
  19961788.250
  23283370.250
  18760275.250
  21311790.250
  21221156.250
 22  6  7  4  0  4.0000000  0 07G08G10G21G23G25G31G32 -12.88,0.0,0.00
  20156301.750
  23153318.750
  18232703.250
  19021547.750
  19676222.250
  22092320.250
  22989894.750
 22  6  7 16  0  5.0000000  0 08G02G06G11G13G17G19G28G30 -14.72,0.0,0.00
  18749468.750
  22488086.250
  18877591.250
  19836605.750
  18095974.750
  22850669.750
  23580924.250
  19431841.750
 22  6  8  4  0  4.0000000  0 06G01G10G21G22G23G32 -16.56,0.0,0.00
  19306694.250
  23233630.750
  18201057.250
  22645943.250
  19160652.250
  23106273.750
 22  6  8 16  0  4.0000000  0 08G02G06G11G14G17G19G28G30 -18.40,0.0,0.00
  21808998.750
  19631816.250
  21918741.250
  21310839.750
  21383529.250
  20094522.750
  20774867.250
  22786828.750
 22  6  9  4  0  6.0000000  0 07G08G10G23G25G26G31G32 -20.24,0.0,0.00
  23086957.250
  20010154.250
  21991702.250
  22364042.750
  23068038.750
  18712790.250
  19917012.750
 22  6  9 16  0  5.0000000  0 07G06G11G14G17G19G24G28 -22.08,0.0,0.00
  18664389.250
  20848294.250
  20448254.750
  20558706.250
  19223801.750
  21313940.250
  19852805.750
 22  6 10  4  0 11.0000000  0 02G22G31 -23.92,0.0,0.00
  21027932.750
  20201286.250
 22  6 10 16  0  4.0000000  0 08G02G06G11G14G19G24G28G30 -25.76,0.0,0.00
  22171928.750
  20163577.250
  22241721.250
  22047507.250
  20814384.750
  22756116.750
  21391806.250
  23735366.750
 22  6 11  4  0  4.0000000  0 08G10G21G22G23G26G27G31G32 -27.60,0.0,0.00
  20448051.750
  21082677.250
  19863195.250
  22543390.250
  23198495.750
  23617211.250
  18928815.750
  20414574.250
 22  6 11 16  0  4.0000000  0 09G02G06G11G13G14G19G24G28G30 -29.45,0.0,0.00
  20931998.250
  19011928.750
  20980438.250
  22961572.250
  20992384.750
  19749825.250
  21545387.750
  20275000.750
  22783713.250
 22  6 12  4  0  4.0000000  0 07G01G08G10G21G22G27G32 -31.29,0.0,0.00
  19358718.750
  21160438.250
  23978611.750
  18509830.250
  23390300.250
  21202529.250
  23970564.250
 22  6 12 16  0  4.0000000  0 09G02G06G11G13G14G17G19G24G28 -33.13,0.0,0.00
  20836094.750
  19006757.250
  20862367.250
  23090475.250
  21079756.750
  21284954.250
  19826839.250
  21479328.250
  20299614.250
 22  6 13  4  0  8.0000000  0 07G10G22G23G25G26G27G31 -34.97,0.0,0.00
  22781909.250
  22188198.750
  18993204.250
  18822182.250
  19201690.750
  20051029.750
  21051172.250
 22  6 13 16  0  4.0000000  0 08G02G06G11G13G17G19G28G30 -36.81,0.0,0.00
  22856184.250
  21119903.750
  22859535.750
  19334209.250
  23511696.250
  22017071.750
  22437600.250
  19278374.750
 22  6 14  4  0  4.0000000  0 06G01G21G22G26G27G31 -38.65,0.0,0.00
  22016834.750
  21299920.250
  20381856.750
  23227147.250
  18289959.250
  19154286.250
 22  6 14 16  0  4.0000000  0 07G02G06G11G15G17G19G20 -40.49,0.0,0.00
  21304260.750
  19663371.250
  21283982.750
  19334975.250
  22161448.250
  20632567.250
  18192854.250