     2.00           OBSERVATION DATA    G(GPS)              RINEX VERSION / TYPE
goGPS-java                              02-Jul-22 05:50:07  PGM / RUN BY / DATE
                                                            MARKER NAME
                                                            MARKER NUMBER
                    Lotek Wireless Inc.                     OBSERVER / AGENCY
7                                                           REC # / TYPE / VERS
                                                            ANT # / TYPE
 -1701669.0000 -5579887.0000  2570077.0000                  APPROX POSITION XYZ
        0.0000        0.0000        0.0000                  ANTENNA: DELTA H / E / N
     2     0                                                WAVELENGTH FACT L1/2
     1    C1                                                # / TYPES OF OBSERV
  2022     6    16    20    36   36.0000000     UTC         TIME OF FIRST OBS
                                                            END OF HEADER
 22  6 17  1  0 10.0000000  0 06G10G18G23G24G27G32 9.02,0.0,0.00
  23790089.250
  23217711.750
  23668688.250
  18589109.750
  18356268.250
  23074391.750
 22  6 19 12  0 10.0000000  0 04G01G09G17G19 -57.800,0.0,0.00
  20657968.250
  21026401.750
  18987702.250
  21507063.750
 22  6 19 12 20  4.0000000  0 08G01G07G13G14G19G21G28G30 -0.05,0.0,0.00
  19875519.750
  23942519.750
  20473383.250
  18730532.250
  20289918.250
  21008851.750
  19528110.250
  18014713.750
 22  6 19 12 40  5.0000000  0 06G01G09G13G14G19G28 -0.10,0.0,0.00
  22973744.250
  19585381.250
  23303420.750
  22012659.250
  22905436.250
  22725109.250
 22  6 19 13  0  5.0000000  0 07G01G07G13G14G21G28G30 -0.15,0.0,0.00
  20447443.250
  19192558.250
  20493184.750
  19530604.250
  22672265.750
  20156573.750
  18572751.750
 22  6 19 13 20  5.0000000  0 07G01G07G13G14G15G28G30 -0.20,0.0,0.00
  18432629.250
  23455230.250
  18178079.250
  23396258.250
  20769853.250
  23926996.250
  22483433.250
 22  6 19 13 40  5.0000000  0 09G01G06G07G13G14G17G19G28G30 -0.25,0.0,0.00
  22620352.250
  23045870.750
  21880550.250
  22051003.750
  21310879.250
  20301879.250
  20725325.250
  21729532.750
  20573423.250
 22  6 19 14  0  4.0000000  0 08G01G13G14G15G17G19G28G30 -0.31,0.0,0.00
  21362068.750
  20467420.750
  19629529.250
  22699308.750
  18806472.250
  18767099.750
  19911515.250
  19195694.250
 22  6 19 14 20  7.0000000  0 08G01G06G07G11G13G14G19G30 -0.36,0.0,0.00
  19065299.750
  22911936.250
  18641294.250
  20043270.750
  23833007.750
  22788437.750
  21747443.250
  22772247.750
 22  6 19 14 40  4.0000000  0 06G13G14G15G17G24G28 -0.41,0.0,0.00
  19925332.250
  18606460.250
  21765624.750
  18296104.250
  21070039.250
  18514814.250
 22  6 19 15  0  4.0000000  0 09G02G06G11G13G17G19G24G28G30 -0.46,0.0,0.00
  20640824.750
  18189541.250
  20761328.750
  21063768.750
  19388067.250
  18251089.750
  21067494.750
  19111372.250
  20479169.250
 22  6 19 15 20  5.0000000  0 09G02G06G11G13G14G17G19G28G30 -0.51,0.0,0.00
  19816319.750
  23743053.750
  19870038.750
  21451876.750
  19563009.250
  19705116.250
  18328540.750
  18945729.250
  21149481.250
 22  6 19 15 40  8.0000000  0 06G02G06G11G19G20G24 -0.56,0.0,0.00
  22009088.750
  20392030.750
  21969331.750
  21378424.750
  18883918.750
  22718078.750
 22  6 19 16  0  4.0000000  0 07G02G06G11G17G19G20G24 -0.61,0.0,0.00
  18970252.250
  23847641.250
  18817739.750
  20777354.250
  19104065.750
  21647027.250
  19847338.750
 22  6 19 16 20  5.0000000  0 08G02G06G11G12G19G20G24G28 -0.66,0.0,0.00
  20869921.250
  20277332.750
  20593808.750
  23034552.250
  21653313.250
  23182288.250
  21930428.250
  21590390.250
 22  6 19 16 40  4.0000000  0 07G02G06G11G12G19G24G28 -0.71,0.0,0.00
  23490698.250
  23423203.250
  23092269.250
  19176734.750
  18792943.750
  18749246.750
  18623773.750
 22  6 19 17  0  6.0000000  0 06G02G06G11G12G19G20 -0.76,0.0,0.00
  22001835.750
  22438308.750
  21493735.250
  23087076.750
  23681016.250
  23196199.750
 22  6 19 17 20  5.0000000  0 07G02G05G06G11G12G19G24 -0.82,0.0,0.00
  23502120.250
  20210022.750
  18406112.750
  22907980.250
  23922404.250
  19444104.750
  19161376.250
 22  6 19 17 40  4.0000000  0 07G02G05G11G12G24G25G28 -0.87,0.0,0.00
  22044972.750
  23747437.750
  21395747.250
  21782559.250
  23894218.250
  18611001.750
  18224923.750
 22  6 19 18  0  4.0000000  0 07G02G06G11G12G24G25G28 -0.92,0.0,0.00
  19013326.750
  20686722.750
  18344120.250
  18105372.750
  21043294.250
  20548339.250
  21532101.250
 22  6 19 18 20  4.0000000  0 07G02G06G11G12G24G25G29 -0.97,0.0,0.00
  22659932.750
  18644553.750
  22006695.250
  21197040.750
  18852854.750
  23178240.250
  19722912.750
 22  6 19 18 40  4.0000000  0 06G02G06G11G20G25G29 -1.02,0.0,0.00
  20348054.750
  22587284.750
  19744750.750
  18725298.750
  19916280.250
  22533407.250
 22  6 19 19  0  8.0000000  0 09G05G11G12G13G18G19G20G25G29 -1.07,0.0,0.00
  21125832.250
  22693719.250
  21076698.750
  19792107.250
  19367942.250
  19617744.250
  21373161.250
  21950227.750
  18494880.750
 22  6 19 19 20  4.0000000  0 06G05G12G13G18G25G29 -1.12,0.0,0.00
  23426225.750
  23919180.250
  21853520.250
  21430026.250
  18204611.750
  20495406.250
 22  6 19 19 40  4.0000000  0 07G05G12G13G15G18G25G29 -1.17,0.0,0.00
  19407447.750
  20420691.750
  23376796.750
  23535939.750
  23040553.750
  20121298.250
  21980081.250
 22  6 19 20  0  4.0000000  0 06G02G12G13G15G18G25 -1.22,0.0,0.00
  20899366.750
  19024195.750
  20873960.750
  20838833.250
  20672026.750
  18187894.750
 22  6 19 20 20  4.0000000  0 07G02G05G13G15G18G20G29 -1.27,0.0,0.00
  23159929.750
  19759641.250
  22335571.250
  22063861.750
  22269714.250
  21847929.750
  20855464.250
 22  6 19 20 40  4.0000000  0 09G05G12G13G15G18G20G23G25G29 -1.32,0.0,0.00
  22479219.250
  18712963.250
  18232463.750
  23676556.750
  18256677.250
  18818512.750
  18917563.750
  23020036.750
  22673353.250
 22  6 19 21  0  4.0000000  0 07G05G12G15G18G23G25G29 -1.38,0.0,0.00
  19955269.750
  22436958.750
  20005347.750
  20901414.750
  21213595.250
  20457035.750
  19213477.750
 22  6 19 21 20  4.0000000  0 09G02G05G10G12G13G18G23G25G29 -1.43,0.0,0.00
  18360938.250
  21638695.750
  18448620.750
  18292582.250
  21794618.750
  21690623.750
  21738116.750
  22109728.250
  19987328.250
 22  6 19 21 40  8.0000000  0 08G02G05G10G15G18G23G25G29 -1.48,0.0,0.00
  19358639.750
  22993086.250
  18514861.750
  20903689.750
  22108040.750
  21989443.750
  23436993.750
  20514286.250
 22  6 19 22  0 11.0000000  0 02G10G29 -1.53,0.0,0.00
  21368872.750
  23909454.250
 22  6 19 22 20  5.0000000  0 07G10G16G18G23G25G26G29 -1.58,0.0,0.00
  21896946.750
  23633461.250
  19992928.750
  19845023.250
  23118185.750
  22858543.250
  19064403.750
 22  6 19 22 40  4.0000000  0 08G10G13G15G18G23G25G29G32 -1.63,0.0,0.00
  23896823.750
  18325427.750
  21702378.250
  22147047.250
  22109684.750
  20091202.750
  21775454.750
  20179241.250
 22  6 19 23  0  8.0000000  0 05G10G15G18G23G32 -1.68,0.0,0.00
  23613310.750
  22103216.250
  21975573.250
  22099538.750
  19392901.250
 22  6 19 23 20  5.0000000  0 07G10G15G18G23G24G27G29 -1.73,0.0,0.00
  18478708.250
  23731263.750
  22930313.750
  23231913.750
  19352292.250
  20340639.750
  18010482.250
 22  6 19 23 40  4.0000000  0 06G10G18G22G27G29G32 -1.78,0.0,0.00
  21513217.250
  20076166.250
  23923673.750
  22914706.250
  21956486.750
  22192429.750
 22  6 20  0  0  6.0000000  0 09G10G16G18G22G23G24G27G29G32 -1.83,0.0,0.00
  18566553.250
  22124232.750
  23279459.750
  20342410.250
  23845964.250
  19147898.750
  19575497.750
  19954346.250
  18728284.750
 22  6 20  0 20  7.0000000  0 08G10G15G18G22G23G24G27G32 -1.89,0.0,0.00
  19790312.250
  21673200.250
  18738112.250
  20955009.750
  19327406.750
  20366497.250
  20514535.250
  19506897.750
 22  6 20  0 40  6.0000000  0 06G10G18G22G23G27G32 -1.94,0.0,0.00
  22676678.250
  21955265.250
  23290328.250
  22463764.250
  23252934.250
  22049577.250
 22  6 20  1  0  4.0000000  0 07G10G18G22G23G24G27G32 -1.99,0.0,0.00
  19260155.750
  18983346.250
  19410848.250
  19298268.750
  20260733.750
  19840165.750
  18408400.250
 22  6 20  1 20  4.0000000  0 06G10G18G22G27G31G32 -2.04,0.0,0.00
  22215869.250
  22500500.250
  22009109.250
  22951470.250
  19103935.750
  21263716.250
 22  6 20  1 40  4.0000000  0 06G10G18G22G23G27G32 -2.09,0.0,0.00
  18175964.250
  19127407.250
  23720155.750
  18738886.750
  19202740.750
  23236478.250
 22  6 20  2  0  4.0000000  0 07G08G10G18G21G23G27G32 -2.14,0.0,0.00
  23977571.750
  21473396.750
  23173947.250
  18595105.750
  22316275.750
  22896137.250
  20652552.750
 22  6 20  2 20  4.0000000  0 09G08G10G18G21G22G23G27G31G32 -2.19,0.0,0.00
  21937194.750
  19350925.250
  21849690.750
  21845973.250
  18708507.250
  20486203.750
  21232358.250
  19922101.250
  18713097.250
 22  6 20  2 40  5.0000000  0 09G01G08G10G21G22G23G27G31G32 -2.24,0.0,0.00
  20373472.750
  19738941.250
  22988672.750
  18875697.750
  22353140.250
  18430045.250
  19346868.250
  22827720.750
  22567319.750
 22  6 20  3  0  8.0000000  0 09G01G08G10G21G22G23G27G31G32 -2.29,0.0,0.00
  18182585.750
  18602192.250
  21654834.750
  22944520.250
  21050131.750
  23397329.250
  18447852.750
  20818805.250
  21445929.750
 22  6 20  3 20  6.0000000  0 07G01G08G21G22G27G31G32 -2.34,0.0,0.00
  19624265.250
  21090016.750
  18685923.250
  23368861.250
  21092900.750
  22521949.250
  23918327.250
 22  6 20  3 40  4.0000000  0 07G10G21G22G23G25G31G32 -2.40,0.0,0.00
  21267891.750
  21461715.750
  20651209.750
  23586641.750
  23137034.750
  19320414.750
  21331060.750
 22  6 20  4  0  4.0000000  0 06G01G10G21G22G31G32 -2.45,0.0,0.00
  18472150.250
  18469704.250
  18164536.250
  23743382.750
  22090145.250
  18540556.750
 22  6 20  4 20  7.0000000  0 08G01G03G10G21G22G25G26G32 -2.50,0.0,0.00
  22250086.750
  18480415.750
  23012914.250
  22241200.250
  22089834.750
  18249997.250
  22957273.250
  22985812.250
 22  6 20  4 40  5.0000000  0 07G01G03G10G21G22G31G32 -2.55,0.0,0.00
  18566862.250
  20232814.250
  20023579.250
  18817937.250
  18798077.250
  23017095.250
  19793260.750
 22  6 20  5  0  4.0000000  0 06G10G21G22G26G31G32 -2.60,0.0,0.00
  23073705.250
  21459281.250
  21447297.750
  20685520.250
  19844165.250
  22544985.250
 22  6 20  5 20  5.0000000  0 09G01G04G10G16G21G22G26G31G32 -2.65,0.0,0.00
  23882110.750
  19437640.750
  20490242.250
  18612531.250
  18485471.250
  18379335.250
  22950767.250
  23064899.750
  19588088.750
 22  6 20  5 40  4.0000000  0 06G03G04G16G21G26G31 -2.70,0.0,0.00
  23547619.250
  19225690.250
  18075376.750
  19064127.750
  22844994.750
  23850855.250
 22  6 20  6  0  4.0000000  0 07G01G03G04G16G21G22G31 -2.75,0.0,0.00
  22439198.750
  20654428.250
  22434930.250
  21045971.750
  23111399.750
  22642258.750
  22117523.250
 22  6 20  6 20  5.0000000  0 06G01G04G16G22G26G31 -2.80,0.0,0.00
  20942495.750
  20019062.750
  18520354.750
  20894432.250
  18385419.250
  20782812.250
 22  6 20  6 40  4.0000000  0 07G04G09G16G21G22G26G31 -2.85,0.0,0.00
  18907732.250
  21161667.250
  23455565.250
  21278359.750
  20484169.750
  23913578.250
  20749548.750
 22  6 20  7  0  6.0000000  0 09G03G04G07G08G09G21G22G27G31 -2.90,0.0,0.00
  21113219.250
  22327438.250
  19323442.750
  19977124.750
  18411271.250
  19491145.750
  18649637.250
  18939137.250
  19227523.250
 22  6 20  7 20  4.0000000  0 07G03G04G09G16G22G26G27 -2.96,0.0,0.00
  18936990.250
  19641929.750
  21510927.250
  18831183.250
  22733629.250
  20378980.250
  22076163.250
 22  6 20  7 40  7.0000000  0 08G03G04G07G08G16G22G26G27 -3.01,0.0,0.00
  22603095.750
  22663018.750
  19611896.750
  19847092.750
  22419452.750
  20558789.250
  18403481.750
  18906666.750
 22  6 20  8  0  7.0000000  0 05G03G04G08G16G27 -3.06,0.0,0.00
  20479321.750
  19803226.750
  22607537.250
  20245069.250
  21845168.250
 22  6 20  8 20  9.0000000  0 06G03G04G08G09G16G27 -3.11,0.0,0.00
  18652459.750
  23194478.750
  19544604.750
  18162482.750
  18395130.750
  19054841.750
 22  6 20  8 40 11.0000000  0 06G03G04G08G09G16G27 -3.160,0.0,0.00
  21537334.750
  19323104.250
  21143642.750
  19892441.750
  21284346.750
  21018141.750
 22  6 20  9  0  6.0000000  0 06G04G07G09G16G27G30 -1.89,0.0,0.00
  18222969.250
  20509639.750
  18364356.250
  20898020.750
  19790257.750
  22481231.750
 22  6 20  9 20 12.0000000  0 06G03G04G08G09G16G27 -3.800,0.0,0.00
  23831364.250
  20371591.750
  21026339.750
  20059763.250
  23670197.250
  21846174.750
 22  6 20  9 40  8.0000000  0 04G04G07G09G14 -0.87,0.0,0.00
  19471270.250
  20683968.250
  18707303.750
  22145421.750
 22  6 20 10  0  6.0000000  0 08G04G07G08G09G14G27G28G30 -1.74,0.0,0.00
  23863810.750
  18320408.250
  23376512.250
  22666238.250
  19512454.750
  19256120.250
  21064498.750
  19879833.250
 22  6 20 10 20  4.0000000  0 06G07G08G09G27G28G30 -2.60,0.0,0.00
  20871424.250
  20324355.750
  19717606.750
  22689722.750
  23316691.250
  22283681.250
 22  6 20 10 40 11.0000000  0 09G04G07G08G09G14G21G27G28G30 -3.480,0.0,0.00
  19632782.250
  18198414.250
  18223206.250
  26090219.750
  19108868.750
  20747433.250
  21018398.250
  20418906.750
  19446851.250
 22  6 20 11  0  4.0000000  0 06G07G08G09G14G21G30 -0.05,0.0,0.00
  21958131.750
  22691616.750
  22235374.250
  22832446.250
  18524488.250
  23022170.250
 22  6 20 11 20  4.0000000  0 08G07G08G09G14G17G21G28G30 -0.10,0.0,0.00
  19243553.250
  20788763.750
  20381007.750
  20118584.750
  20778296.250
  21868131.750
  21190601.750
  20093314.250
 22  6 20 11 40  4.0000000  0 08G01G07G08G09G14G17G21G30 -0.15,0.0,0.00
  19246866.750
  22657688.750
  19063739.750
  18688535.250
  23537024.250
  23671624.750
  19402135.750
  23259349.250
 22  6 20 12  0  4.0000000  0 09G01G07G08G09G13G17G19G21G28 -0.20,0.0,0.00
  22679107.250
  20459016.750
  23704488.750
  23346484.750
  23481642.750
  20976573.750
  23433474.250
  23362642.250
  22179614.250
 22  6 20 16  0  4.0000000  0 08G02G06G14G17G19G20G24G28 -0.81,0.0,0.00
  22139739.250
  21124516.750
  23826825.250
  18112819.750
  22413529.750
  18757901.750
  23052736.250
  22493702.750
 22  6 21  4  0  7.0000000  0 06G01G10G21G22G26G31 -2.64,0.0,0.00
  23804482.750
  23962740.750
  23561015.250
  23207053.750
  18791064.250
  21509809.750
 22  6 24 16  0  4.0000000  0 08G02G06G11G12G19G20G24G28 -15.41,0.0,0.00
  23549871.750
  22951377.750
  23264180.750
  19737030.750
  18335354.250
  19852717.750
  18616344.250
  18277195.250
 22  6 25  4  0  6.0000000  0 08G01G04G10G21G22G26G31G32 -17.23,0.0,0.00
  21813902.750
  18609173.250
  22582172.250
  21811671.750
  21653875.250
  22525373.250
  19851015.250
  22563969.750
 22  6 28 16  0  4.0000000  0 07G02G11G12G19G20G24G28 -30.00,0.0,0.00
  19053287.250
  18666244.250
  20873204.250
  20255398.250
  20945936.250
  20273042.750
  20109590.250
 22  6 29  4  0  7.0000000  0 07G16G21G22G25G26G31G32 -31.83,0.0,0.00
  22655481.750
  20295273.250
  20248990.750
  22452065.750
  20432659.750
  18447676.250
  21251801.750