     2.00           OBSERVATION DATA    G(GPS)              RINEX VERSION / TYPE
goGPS-java                              09-May-19 12:13:13  PGM / RUN BY / DATE
                                                            MARKER NAME
                                                            MARKER NUMBER
                    Lotek Wireless Inc.                     OBSERVER / AGENCY
7                                                           REC # / TYPE / VERS
                                                            ANT # / TYPE
 -1701661.0000 -5579988.0000  2569868.0000                  APPROX POSITION XYZ
        0.0000        0.0000        0.0000                  ANTENNA: DELTA H / E / N
     2     0                                                WAVELENGTH FACT L1/2
     1    C1                                                # / TYPES OF OBSERV
  2018     5     6    21    53    4.0000000     UTC         TIME OF FIRST OBS
                                                            END OF HEADER
 18  5  8  0  0  5.0000000  0 08G10G15G16G20G21G24G29G32 -64800.92,0.0
  22313069.250
  21295468.750
  18679015.250
  20654350.750
  21656877.750
  23663037.250
  21133659.250
  18171156.750
 18  5 12  0  0 10.0000000  0 05G15G16G20G24G27 -64810.15,0.0
  21977138.750
  19060969.750
  21003663.250
  23571665.250
  18435142.750
 18  5 16  0  0  8.0000000  0 05G10G15G20G21G29 -64819.37,0.0
  20964811.250
  21307291.750
  19928585.250
  20245566.250
  21311710.250
 18  5 20  0  0 10.0000000  0 05G10G15G20G21G32 -64828.600,0.0
  21806148.750
  22876083.750
  21025895.250
  21054001.250
  22398998.250
 18  5 24  0  0  5.0000000  0 06G10G15G20G21G29G32 -64837.82,0.0
  21559617.250
  23365610.750
  20999009.250
  20794897.250
  23487493.250
  21781285.250
 18  5 28  0  0  5.0000000  0 06G10G20G21G24G27G32 -64847.05,0.0
  18095988.250
  23724532.750
  23356090.250
  19220364.750
  19110616.250
  18002961.250
 18  6  1  0  0  4.0000000  0 08G10G14G15G20G21G24G27G32 -64856.27,0.0
  19871443.750
  21190356.750
  23154768.250
  19675544.250
  19220837.750
  21146232.750
  20794342.250
  19530818.250
 18  6  5  0  0  4.0000000  0 07G10G14G20G21G24G27G32 -64865.50,0.0
  23455751.750
  18373584.750
  23412616.250
  22958862.250
  18980960.750
  18385131.250
  22943593.250
 18  6  9  0  0  6.0000000  0 06G10G14G20G21G27G32 -64874.72,0.0
  21992046.250
  22563969.250
  22087548.750
  21728285.750
  23016295.750
  21390100.250
 18  6 13  0  0  4.0000000  0 06G10G14G20G21G27G32 -64883.95,0.0
  23201426.250
  23504607.750
  23427081.250
  23254646.750
  18418844.750
  22588838.750
 18  6 17  0  0  4.0000000  0 08G08G10G14G20G24G27G31G32 -64893.17,0.0
  23709195.250
  20997970.750
  21096284.250
  21402664.250
  23843225.250
  22456544.250
  22826475.750
  20435752.750
 18  6 21  0  0  9.0000000  0 05G10G20G21G24G31 -64902.400,0.0
  20550381.750
  21018320.250
  21472239.750
  23936657.750
  21696585.250
 18  6 25  0  0  5.0000000  0 08G08G10G14G18G20G21G31G32 -64911.93,0.0
  23923344.750
  21089536.750
  20959549.750
  23289570.750
  21698455.250
  22485644.750
  21629225.250
  20800114.250
 18  6 29  0  0  4.0000000  0 08G08G10G14G18G20G27G31G32 -64921.47,0.0
  23939533.750
  20990825.250
  20814124.250
  22605842.750
  21837104.750
  23513149.250
  20981836.250
  20875317.250
 18  7  3  0  0 11.0000000  0 04G08G18G31G32 -64931.000,0.0
  24641553.750
  22602748.750
  21025562.250
  21608350.250
 18  7  7  0  0  4.0000000  0 09G01G08G10G11G14G18G27G31G32 -64940.04,0.0
  21610184.250
  22106342.750
  18858107.750
  21019345.750
  18637837.250
  19402167.250
  22034277.250
  23882839.750
  19078007.750
 18  7 11  0  0  4.0000000  0 08G01G10G11G14G18G22G31G32 -64949.09,0.0
  19180152.750
  23110152.250
  18874814.250
  22859645.250
  23192067.750
  20127880.750
  21738745.750
  23456090.250
 18  7 15  0  0  4.0000000  0 07G01G10G11G14G18G26G31 -64958.13,0.0
  20436054.250
  19054952.250
  20455123.250
  18737996.250
  18720954.750
  21504382.750
  23337159.250
 18  7 19  0  0  4.0000000  0 09G01G04G10G11G14G18G22G26G31 -64967.18,0.0
  19393533.750
  20141490.250
  18668501.750
  19760696.250
  18249728.750
  23975861.750
  20213161.250
  20332973.750
  22668348.750
 18  7 23  0  0  5.0000000  0 08G01G04G10G11G14G18G22G31 -64976.22,0.0
  22002355.750
  22771902.250
  22130081.750
  22740815.750
  21398909.250
  20961968.750
  22607197.750
  19794095.750
 18  7 27  0  0  5.0000000  0 08G01G03G11G14G18G22G31G32 -64985.27,0.0
  21941148.250
  23787902.250
  23026856.750
  21708796.250
  21241062.250
  22241421.750
  20114756.750
  22830325.250
 18  7 31  0  0  4.0000000  0 08G01G04G10G11G16G18G26G31 -64994.31,0.0
  18642694.750
  18748974.250
  19909511.250
  20041193.250
  20426874.250
  18273249.750
  18859545.750
  23184891.250
 18  8  4  0  0  5.0000000  0 06G04G10G11G18G22G31 -65003.36,0.0
  18198393.750
  20253771.250
  20154994.250
  18433020.250
  23934087.250
  23376969.750
 18  8  8  0  0  4.0000000  0 09G01G04G10G11G16G18G26G31G32 -65012.40,0.0
  18137513.750
  23430563.750
  20344070.750
  20012703.750
  18520826.750
  18362839.750
  23409123.750
  23331525.250
  19826444.750
 18  8 12  0  0  4.0000000  0 09G01G03G04G14G18G22G23G26G31 -65021.45,0.0
  18766339.750
  18082848.250
  23652187.250
  19006227.750
  19227068.750
  23159330.250
  20332285.250
  23539841.250
  18222096.250
 18  8 19  8  0  4.0000000  0 09G01G06G07G13G15G17G19G28G30 -65038.03,0.0
  20130463.250
  18546763.250
  19736483.750
  18943974.750
  21173431.750
  23291983.750
  23256001.750
  18363639.250
  23573091.750
 18  8 25  8  0 10.0000000  0 08G01G06G07G13G17G19G28G30 -65051.600,0.0
  23506844.750
  20313319.250
  23296389.750
  21925991.250
  20203176.750
  19644435.750
  21018278.750
  20829656.250
 18  8 31  8  0  6.0000000  0 09G01G02G03G06G13G17G19G28G30 -65066.65,0.0
  18700023.750
  22637985.750
  18554013.250
  19944124.250
  22728336.250
  20882176.250
  19888282.750
  21391156.750
  21930429.250
 18  9  6  8  0  4.0000000  0 06G02G06G17G19G28G30 -65081.69,0.0
  18095011.750
  21820272.750
  23635755.750
  22303131.750
  23849983.250
  19169419.750
 18  9 12  8  0  5.0000000  0 08G02G03G06G12G17G19G24G28 -65096.74,0.0
  21144880.750
  18658597.250
  19471324.750
  23323774.750
  21931958.250
  20355707.750
  21663126.750
  21921649.250
 18  9 18  8  0  4.0000000  0 07G02G06G12G17G19G24G28 -65111.78,0.0
  21916031.750
  20918395.750
  23913972.750
  23755778.250
  22022453.250
  22685050.250
  23649211.750
 18  9 30  8  0  4.0000000  0 06G02G05G12G17G24G28 -65141.87,0.0
  23729571.750
  20708617.750
  18778081.250
  21006761.750
  19109637.750
  21145992.250
 18 10 12  8  0  4.0000000  0 07G02G05G06G12G19G24G25 -65171.96,0.0
  20484186.250
  21472458.250
  22051661.250
  20117828.250
  22564202.250
  22507161.750
  23037246.250
 18 10 24  8  0  7.0000000  0 07G02G05G06G12G19G24G25 -65202.05,0.0
  20463365.250
  19378166.250
  22832401.250
  18899842.250
  22750589.750
  23014372.250
  20716654.250
 18 11  5  8  0  7.0000000  0 08G02G05G12G13G15G21G25G29 -65232.14,0.0
  21982879.250
  19643722.750
  20004742.250
  18065513.750
  18461237.750
  18314955.250
  20495265.750
  22105606.750
 18 11 17  8  0  9.0000000  0 09G02G05G12G13G15G20G21G25G29 -65262.23,0.0
  19325855.750
  22852332.750
  23788086.250
  19241793.250
  19199026.250
  20793035.750
  20044402.750
  23186919.250
  23343084.750
 18 11 29  8  0  4.0000000  0 09G02G05G10G12G13G15G20G25G29 -65292.32,0.0
  23103029.250
  21349413.250
  18521947.250
  22584916.250
  21364503.750
  20587781.750
  22099905.250
  21295987.750
  19307988.250
 18 12 11  8  0  7.0000000  0 07G13G15G20G21G25G26G29 -65322.41,0.0
  20888133.250
  19198640.750
  20449460.750
  21281962.250
  22492448.250
  22738401.750
  18543787.250
 18 12 23  8  0  4.0000000  0 07G04G10G13G15G20G21G29 -65352.50,0.0
  22271644.750
  20577563.750
  21044976.750
  18518313.750
  18987212.250
  19784638.750
  18404062.250
 19  1  4  8  0  4.0000000  0 07G10G15G16G20G21G29G32 -65382.59,0.0
  20414060.750
  20215505.750
  23347829.250
  19281855.250
  19657772.750
  20484346.250
  21955816.250
 19  1 16  8  0  4.0000000  0 07G10G15G20G21G24G27G32 -65412.68,0.0
  22464199.750
  18487552.750
  21742836.750
  21740865.250
  23615028.750
  23925762.750
  22775857.750
 19  1 28  8  0  4.0000000  0 06G10G14G20G21G27G32 -65442.77,0.0
  19903515.750
  20346070.750
  19599409.250
  19680831.750
  21056990.750
  19436609.250
 19  2  9  8  0  5.0000000  0 08G08G10G14G20G24G27G31G32 -65472.86,0.0
  22193508.750
  19589379.250
  19405736.250
  19801334.250
  22696216.750
  21267358.250
  21573882.250
  18990718.750
 19  2 15  8  0  4.0000000  0 08G08G10G14G20G21G27G31G32 -65487.91,0.0
  22503773.250
  19808811.250
  19525458.250
  20335709.750
  21474055.750
  21968321.250
  20823284.750
  19335737.250
 19  2 21  8  0  5.0000000  0 09G08G10G11G14G18G20G27G31G32 -65502.96,0.0
  22035904.250
  19135502.250
  21914324.750
  18840619.750
  20198799.250
  20010613.750
  21821213.750
  19221587.750
  18847131.750
 19  2 27  8  0  4.0000000  0 09G01G10G11G14G18G20G25G31G32 -65518.00,0.0
  19606765.250
  22793927.750
  18885877.250
  22519533.750
  23119794.750
  18044179.750
  19972296.750
  22044696.750
  22685901.750
 19  3  5  8  0  5.0000000  0 09G01G08G10G11G14G18G22G31G32 -65533.05,0.0
  20637039.250
  22227272.250
  18868147.750
  20373988.750
  18580793.250
  18563857.250
  21555615.250
  23400052.250
  18875712.250
 19  3 11  8  0  4.0000000  0 09G01G10G11G14G18G22G26G31G32 -65548.09,0.0
  18874500.750
  18115448.250
  19143474.250
  23723392.750
  23296081.750
  19645899.750
  20049804.750
  22072024.750
  18124406.750
 19  3 15  0  0  4.0000000  0 07G02G05G12G13G15G25G29 -65557.28,0.0
  18160275.750
  21695546.750
  22239151.250
  23956579.750
  23774842.750
  21845171.250
  21827605.750
 19  3 19  0  0  4.0000000  0 08G02G05G12G13G15G21G25G29 -65567.31,0.0
  18700931.250
  22429609.250
  23073366.750
  23876920.250
  23498533.750
  18674449.750
  22364296.250
  21743367.250
 19  3 23  0  0  5.0000000  0 08G02G05G12G15G20G21G25G29 -65577.35,0.0
  18643305.250
  22632704.250
  23360216.250
  22660735.250
  18305569.250
  18168054.750
  22383102.250
  21118327.750
 19  3 27  0  0  4.0000000  0 06G05G12G20G21G25G29 -65587.38,0.0
  19607055.250
  20398477.250
  20192262.750
  20385431.750
  19204439.250
  23292019.250